area,brand,name,addr,filter,long,lat,density_2021,ave_pop_growth,2019_income,village_rent,rating,comment
TPE,cama,台北敦南店,台北市敦化南路二段5號,大安區義安里,121.549153,25.032824,30537.58209428585,-1.0389453219592355,3844691.0,2370.0,4.0,217.0
TPE,cama,民生松江店,台北市中山區民生東路二段133號,中山區中庄里,121.532388,25.058088,34199.34850344049,-1.879026538898243,1857272.0,2506.0,3.7,107.0
TPE,cama,台北長安店,台北市中山區長安東路二段94號,中山區朱園里,121.534597,25.048324,16690.778379273743,-0.5000985576377885,2769267.0,2226.0,3.7,103.0
TPE,cama,台北長春店,台北市中山區長春路133-5號,中山區中吉里,121.531175,25.05495,30029.689818910883,-0.4022341195244472,2750941.0,4054.0,4.2,172.0
TPE,cama,台北行天宮,台北市中山區民權東路二段97號,中山區新福里,121.53238,25.062712,37267.48854840043,-1.0439016765057505,1839588.0,3293.0,4.4,205.0
TPE,cama,南京龍江店,台北市中山區南京東路三段82號,中山區力行里,121.539348,25.05175,21085.12931049232,0.0006004314568652,3990206.0,2892.0,4.1,234.0
TPE,cama,民生馬偕店,台北市中山區民生東路一段2號,中山區中山里,121.523249,25.057835,40836.41319827053,-0.122099768933559,2793229.0,2718.0,3.9,143.0
TPE,cama,台北天津店,台北市中山區長安東路一段19號,中山區正得里,121.522983,25.049633,24953.495137385096,-0.8080099136045386,1859218.0,2674.0,3.9,210.0
TPE,cama,民權西路店,台北市中山區民權西路73號,中山區集英里,121.519885,25.063037,20744.09637439897,-0.5990158578695226,2900878.0,2581.0,4.2,64.0
TPE,cama,中山農安店,台北市中山區中山北路三段25之10號,中山區晴光里,121.522484,25.065187,49924.21776174035,-0.5847909863359331,2439490.0,2161.0,3.8,147.0
TPE,cama,長春復興店,台北市中山區長春路366號,中山區龍洲里,121.542608,25.054472,70650.64035430548,-1.10069074675474,2228394.0,1842.0,4.0,148.0
TPE,cama,忠孝新生店,台北市中正區新生南路一段90號,中正區幸市里,121.53256,25.040386,26122.24180970343,-2.3789097471844656,2834326.0,4967.0,4.1,122.0
TPE,cama,台北小南門,台北市中正區廣州街10號,中正區南門里,121.508167,25.035506,8880.961197239543,-0.698778628129304,1801442.0,3333.0,4.2,283.0
TPE,cama,延平開封店,台北市中正區延平南路15號,中正區光復里,121.510784,25.045888,12649.652578401554,-0.5278111110776547,1658650.0,3334.0,4.1,413.0
TPE,cama,忠孝杭州店,台北市中正區忠孝東路二段30號,中正區幸福里,121.52779,25.043505,19973.064994366418,-1.4101797200920974,2460771.0,2883.0,3.9,300.0
TPE,cama,台北襄陽店,台北市中正區襄陽路35號,中正區黎明里,121.513723,25.043533,5734.29678372022,0.5857702086999723,1631191.0,3884.0,4.1,413.0
TPE,cama,台北南昌店,台北市中正區南昌路一段39號,中正區龍福里,121.517084,25.031563,26014.12965903349,-4.059159656295316,2650936.0,4439.0,4.1,81.0
TPE,cama,台北北醫店,台北市信義區莊敬路246號,信義區景新里,121.562296,25.029312,24066.68294620556,-0.8379766696634464,3119196.0,3591.0,3.9,166.0
TPE,cama,台北松德店,台北市信義區松德路163號,信義區安康里,121.574836,25.036353,21773.60486066081,-0.941526042059119,8391668.0,2173.0,4.0,110.0
TPE,cama,台北世貿店,台北市信義區信義路四段389號,信義區中興里,121.55842,25.033265,40963.870491628986,-2.777515761489635,1737789.0,3066.0,4.0,140.0
TPE,cama,莊敬松仁店,台北市信義區松仁路207-1號,信義區三犁里,121.568509,25.027041,9337.143941611226,-1.103594616103424,3526756.0,,3.8,86.0
TPE,cama,台北市府店,台北市信義區基隆路一段167號,信義區興雅里,121.565175,25.041675,22399.06076647384,-2.131715641858293,2435957.0,5774.0,4.1,56.0
TPE,cama,台北松仁店,台北市信義區松仁路32-36號,信義區西村里,121.568119,25.038786,11068.765051709444,-1.2116072327724936,1865725.0,2238.0,3.8,86.0
TPE,cama,新光A8店,台北市信義區松高路12號B2,信義區西村里,121.5668,25.038813,11068.765051709444,-1.2116072327724936,1865725.0,2238.0,3.4,84.0
TPE,cama,台北永春店,台北市信義區忠孝東路五段435-1號,信義區富台里,121.57583,25.041008,39816.76760778728,-0.7362009135914189,1981177.0,3282.0,4.1,97.0
TPE,cama,台北六張犁,台北市信義區基隆路二段195號,信義區黎順里,121.553191,25.024725,20686.3213333314,-1.9972378634456929,1702836.0,2320.0,3.9,166.0
TPE,cama,內湖大潤發,台北市內湖區舊宗路一段128號,內湖區湖元里,121.57832,25.060963,2354.8240154726204,-1.6090779492294278,2436938.0,1575.0,4.0,237.0
TPE,cama,台北內湖店,台北市內湖區內湖路一段417號,內湖區麗山里,121.571186,25.081591,36080.35939002989,-0.5595252527257344,2651133.0,2699.0,4.0,237.0
TPE,cama,內湖成功店,台北市內湖區成功路三段174巷18號,內湖區湖濱里,121.590492,25.081133,12754.927192873816,-0.4992986518906228,4397179.0,1178.0,4.0,237.0
TPE,cama,台北和碩立德店,台北市北投區立德路150-3號b1F,北投區一德里,121.473419,25.127317,2818.0324882780587,-1.13862105404016,2557267.0,1058.0,4.1,19.0
TPE,cama,台北石牌店,台北市北投區裕民四路3號1樓,北投區振華里,121.515987,25.115613,27806.720973650023,-1.32882704297795,3135363.0,3231.0,4.3,217.0
TPE,cama,台北和碩店,台北市北投區立功街76號,北投區一德里,121.469185,25.124789,2818.0324882780587,-1.13862105404016,2557267.0,1058.0,4.1,19.0
TPE,cama,台北奇岩店,台北市北投區北投路一段59號,北投區八仙里,121.500675,25.125938,1440.0679737137332,-1.8059738843639208,2105370.0,1746.0,4.1,211.0
TPE,cama,台北南港店,台北市南港區南港路一段153號,南港區南港里,121.613604,25.055077,16544.553038536433,0.6917206349828546,2200618.0,2609.0,4.8,4.0
TPE,cama,南港站前店,台北市南港區南港路二段6號,南港區東明里,121.605988,25.054352,18109.99350355522,5.35298623821879,2265416.0,1120.0,3.5,270.0
TPE,cama,南港環球店,台北市南港區忠孝東路七段371號B1,南港區中南里,121.607496,25.052571,2156.3364620975462,-2.364998031582788,992878.0,1603.0,3.8,11.0
TPE,cama,天母蘭雅店,台北市士林區中山北路六段126號,士林區忠誠里,121.525004,25.105765,38135.70362658196,-1.3948491409948507,2854745.0,5384.0,4.5,4.0
TPE,cama,天母芝山店,台北市士林區福華路122號,士林區德行里,121.522936,25.102609,23086.27482705442,-0.4740871615553328,1879543.0,2751.0,4.9,40.0
TPE,cama,台北承德店,台北市大同區承德路一段30號,大同區建明里,121.516749,25.050647,21679.756337171104,-2.6617841592189606,1336075.0,2040.0,4.3,111.0
TPE,cama,台北大安店,台北市大安區大安路一段170-3,大安區仁慈里,121.5459544,25.03674512,47650.26670549039,-0.1075774855597029,3559340.0,1825.0,4.0,121.0
TPE,cama,大安信義店,台北市大安區信義路三段174號,大安區龍圖里,121.542124,25.033155,31034.078878504435,-1.1456625282339448,4097363.0,2502.0,4.3,215.0
TPE,cama,森林公園店,台北市大安區信義路三段25號,大安區民炤里,121.534294,25.033773,32107.397188630363,-0.26806778685969,5999670.0,1822.0,4.4,123.0
TPE,cama,台北國泰店,台北市大安區仁愛路四段300巷13號,大安區光信里,121.554514,25.036863,57255.34162721282,-1.347133175535845,4260737.0,2077.0,4.1,34.0
TPE,cama,台北和平店,台北市大安區和平東路三段6號,大安區虎嘯里,121.546876,25.024512,26169.627795738656,-1.6230082674922208,2281243.0,2872.0,4.1,175.0
TPE,cama,台北古亭店,台北市大安區羅斯福路二段81號之2,大安區古莊里,121.523644,25.025773,34230.50324792905,0.8295320928445982,3769138.0,3146.0,4.1,151.0
TPE,cama,台北東門店,台北市大安區信義路二段52號,大安區光明里,121.525865,25.034479,32501.768513443545,1.728812850254139,2246154.0,2209.0,4.0,150.0
TPE,cama,台北公館店,台北市大安區羅斯福路三段325號,大安區大學里,121.532236,25.017077,45612.20539650289,-0.2215433181810648,4643860.0,1541.0,4.3,120.0
TPE,cama,忠孝復興店,台北市大安區復興南路一段133號,大安區光武里,121.544088,25.042764,37131.21454223301,-1.4931504734489267,3643217.0,5203.0,3.9,83.0
TPE,cama,忠孝敦化店,台北市大安區安和路一段15號,大安區建倫里,121.549903,25.039598,37710.81747880526,-0.986778955176056,4386578.0,4186.0,4.1,152.0
TPE,cama,南京三民店,台北市松山區南京東路五段141號,松山區東光里,121.561695,25.051666,36900.13471537036,-1.952800883867874,3394181.0,9026.0,4.3,198.0
TPE,cama,台北南京店,台北市松山區南京東路四段108號,松山區美仁里,121.554503,25.051427,16941.311151316353,-0.0230335214696915,1806613.0,3940.0,4.1,234.0
TPE,cama,民權復興店,台北市松山區民權東路三段120號,松山區民有里,121.545553,25.061878,32173.69790922893,-1.48568348970007,5637140.0,3369.0,4.1,110.0
TPE,cama,八德台安店,台北市松山區八德路二段358號,松山區中崙里,121.545759,25.047899,50089.33954483317,-0.5742544086064487,2164630.0,4444.0,4.2,120.0
TPE,cama,八德寧安店,台北市松山區八德路三段190號,松山區復建里,121.556076,25.047919,55314.83038929333,-0.5561154943877729,2179635.0,1322.0,4.3,107.0
TPE,cama,民生敦北店,台北市松山區民生東路四段79之2號,松山區精忠里,121.551548,25.058066,2017.1525851305707,-0.2587678637916646,2562417.0,4141.0,3.9,143.0
TPE,cama,松山饒河店,台北市松山區八德路四段668號,松山區慈祐里,121.576162,25.049865,27650.057474992504,-0.3575180954236886,2393420.0,3578.0,4.3,131.0
NTC,cama,四號公園店,新北市中和區中安街24號,中和區中安里,121.513233,25.003102,56261.39081287344,-0.7945740499115672,1832720.0,4334.0,4.3,232.0
NTC,cama,中和環球店,新北市中和區中山路三段99號,中和區民有里,121.475106,25.005868,29265.961638319044,-1.965812843830772,613038.0,,4.0,109.0
NTC,cama,中和立言店,新北市中和區中正路903之1號,中和區中原里,121.483748,25.005901,5714.260089981111,9.94952441688719,2230550.0,1333.0,4.2,67.0
NTC,cama,中和泰和店,新北市中和區泰和街39號1樓,中和區廟美里,121.499165,24.999538,47478.00279988096,-0.92370421302439,1151263.0,2518.0,4.4,78.0
NTC,cama,新店七張店,新北市新店區北新路二段218號,新店區新安里,121.543032,24.97708,43717.885099718726,-12.78577548272093,1655582.0,3906.0,4.0,204.0
NTC,cama,新店寶橋店,新北市新店區寶橋路214號,新店區寶福里,121.551109,24.978479,4596.579006497143,-0.1476553716328155,2811377.0,1859.0,4.4,205.0
NTC,cama,新店民權店,新北市新店區民權路96號1樓,新店區復興里,121.53662,24.983029,5239.354457744582,-1.462681377249305,941190.0,2691.0,3.7,158.0
NTC,cama,板橋三民店,新北市板橋區三民路二段67號,板橋區長壽里,121.47945,25.017021,30986.774137971293,-0.3686774816913226,759779.0,1222.0,4.4,114.0
NTC,cama,板橋三民店,新北市板橋區三民路二段67號1樓,板橋區長壽里,121.47945,25.017021,30986.774137971293,-0.3686774816913226,759779.0,1222.0,4.4,114.0
NTC,cama,板橋亞東店,新北市板橋區南雅南路二段21號Ｂ1,板橋區華東里,121.452312,24.997312,15641.54307170118,1.1417444778987949,3539135.0,3384.0,3.3,32.0
NTC,cama,板橋文化店,新北市板橋區文化路二段402號,板橋區松翠里,121.473828,25.031313,48279.56826494719,-0.5977789017175124,869008.0,2455.0,4.5,109.0
NTC,cama,板橋正隆店,新北市板橋區板新路一號,板橋區長安里,121.475555,25.012371,43958.14437349226,-0.855471869107971,1375222.0,2692.0,4.2,94.0
NTC,cama,永和中山店,新北市永和區中山路一段220號,永和區保安里,121.508225,25.008299,29497.069212002167,-1.52682080446076,3040572.0,2964.0,4.2,66.0
NTC,cama,永和耕莘店,新北市永和區中興街83號,永和區中興里,121.517269,25.011875,53764.53934816237,0.4081145857044295,1032258.0,1115.0,4.2,60.0
NTC,cama,永和耕莘店,新北市永和區中興街83號1樓,永和區中興里,121.517269,25.011875,53764.53934816237,0.4081145857044295,1032258.0,1115.0,4.2,60.0
NTC,cama,永和福和店,新北市永和區福和路271號,永和區福和里,121.517608,25.007345,55400.63125282097,-1.0579706325234937,2188245.0,1937.0,4.1,103.0
NTC,cama,汐止遠雄店,新北市汐止區新台五路一段99號B1,汐止區復興里,121.648248,25.06162,39070.83765716913,0.2423895026010628,3108012.0,1960.0,2.7,42.0
NTC,cama,淡水新市店,新北市淡水區中山北路二段201號,淡水區崁頂里,121.444003,25.185673,5179.330969260427,12.4154763814305,5025469.0,1392.0,4.2,243.0
NTC,cama,蘆洲長榮店,新北市蘆洲區長榮路201號,蘆洲區正義里,121.46095,25.084719,23458.84770713887,2.2529647208720123,5147118.0,1911.0,4.1,195.0
TPE,louisa,城中門市,台北市延平南路13號,中正區光復里,121.510881,25.046047,12649.652578401554,-0.5278111110776547,1658650.0,3334.0,3.7,174.0
TPE,louisa,民生創始門市,台北市民生東路三段130巷7弄1號,松山區松基里,121.546313,25.056664,21150.871349328656,-0.9991871032571265,2911446.0,3101.0,3.6,110.0
TPE,louisa,古亭門市,台北市南昌路二段115號,中正區板溪里,121.521719,25.026423,34871.137382449204,-1.7469275714852313,1389956.0,2276.0,3.8,186.0
TPE,louisa,永吉門市,台北市永吉路30巷27號,信義區敦厚里,121.568889,25.044796,46201.67226470378,-1.4881146218298578,2337411.0,4717.0,3.8,140.0
TPE,louisa,延平門市,台北市延平南路214號,中正區廈安里,121.507396,25.034524,59502.84601517826,-0.0163839097767256,1848441.0,2093.0,3.9,270.0
TPE,louisa,中山門市,台北市錦州街5號,中山區聚盛里,121.523898,25.060434,34908.6678348258,-0.6871739024225665,1584544.0,3521.0,3.5,894.0
TPE,louisa,忠孝門市,台北市忠孝東路三段217巷4弄2號,大安區昌隆里,121.539868,25.042748,23075.27595401212,-1.0366371282904594,1942707.0,2027.0,3.7,359.0
TPE,louisa,忠孝216門市,台北市忠孝東路四段216巷52號,大安區車層里,121.552853,25.038872,52235.02986114866,-1.1391250192385924,4043221.0,4856.0,3.7,359.0
TPE,louisa,民權門市,台北市松江路313巷22號之2,中山區松江里,121.534769,25.061702,33570.083333341936,-1.3080094299967668,2988501.0,1718.0,3.9,1230.0
TPE,louisa,台塑門市,台北市民生東路四段56巷3弄1號,松山區精忠里,121.551755,25.057182,2017.1525851305707,-0.2587678637916646,2562417.0,4141.0,4.0,129.0
TPE,louisa,忠孝新生門市,台北市臨沂街27巷9-4號,中正區幸市里,121.531428,25.041235,26122.24180970343,-2.3789097471844656,2834326.0,4967.0,3.3,159.0
TPE,louisa,南港門市,台北市三重路19-4號1樓,南港區三重里,121.613612,25.05685,7451.3328837748495,1.368015199290292,5225294.0,2335.0,3.5,270.0
TPE,louisa,松山門市,台北市松山路465巷29弄14號,信義區松光里,121.579292,25.040873,44306.03221211958,-1.4008870382433258,1907779.0,2312.0,3.7,251.0
TPE,louisa,敦北門市,台北市敦化北路244巷35號,松山區民有里,121.547666,25.061022,32173.69790922893,-1.48568348970007,5637140.0,3369.0,4.0,114.0
TPE,louisa,八德門市,台北市八德路二段287號,中山區朱崙里,121.541926,25.047194,23137.60128868763,0.447031917993194,1401459.0,2266.0,3.8,376.0
TPE,louisa,南京復興門市,台北市南京東路三段256巷20弄2號,松山區中正里,121.5448,25.050653,29466.572383481845,-1.142283607167164,5786935.0,2554.0,3.4,120.0
TPE,louisa,松江門市,台北市四平街55號,中山區中央里,121.533525,25.053708,14986.753326120555,-1.4515914528251774,1610149.0,3224.0,3.7,476.0
TPE,louisa,華山門市,台北市紹興南街4-1號,中正區幸福里,121.524772,25.043631,19973.064994366418,-1.4101797200920974,2460771.0,2883.0,3.7,170.0
TPE,louisa,敦南門市,台北市敦化南路二段81巷45弄21號,大安區義安里,121.550353,25.030539,30537.58209428585,-1.0389453219592355,3844691.0,2370.0,4.2,106.0
TPE,louisa,三民門市,台北市南京東路五段163-13號,松山區東光里,121.56258,25.051649,36900.13471537036,-1.952800883867874,3394181.0,9026.0,3.8,380.0
TPE,louisa,台大門市,台北市新生南路三段100號,大安區大學里,121.532938,25.016876,45612.20539650289,-0.2215433181810648,4643860.0,1541.0,3.6,233.0
TPE,louisa,六張犁門市,台北市基隆路二段190-1號,大安區虎嘯里,121.55194,25.024049,26169.627795738656,-1.6230082674922208,2281243.0,2872.0,3.4,251.0
TPE,louisa,南京光復門市,台北市南京東路五段23巷6弄1號,松山區東光里,121.558134,25.052212,36900.13471537036,-1.952800883867874,3394181.0,9026.0,3.7,499.0
TPE,louisa,南西門市,台北市中山北路一段140巷138號,中山區民安里,121.520449,25.051451,19806.234806991262,-1.4481974642719977,1982235.0,3818.0,3.5,894.0
TPE,louisa,樂群直營門市,台北市中山區樂群二路150號,中山區金泰里,121.557175,25.079698,7344.064101939221,0.1566459456922094,5937431.0,3264.0,3.2,139.0
TPE,louisa,龍江門市,台北市中山區龍江路393號,中山區行仁里,121.54105,25.065359,40912.81071875895,-1.970480633371973,2544143.0,1613.0,4.1,142.0
TPE,louisa,遼寧門市,台北市中山區遼寧街112號,中山區復華里,121.541998,25.05261,21224.91595284512,-0.4143777498369398,2723005.0,2451.0,3.8,376.0
TPE,louisa,榮星花園門市,台北市中山區民權東路三段16號,中山區江寧里,121.54009,25.062132,39849.56759481466,-1.395183501217382,3332532.0,2591.0,3.4,439.0
TPE,louisa,南京建國直營門市,台北市中山區南京東路二段206號,中山區朱園里,121.535844,25.051819,16690.778379273743,-0.5000985576377885,2769267.0,2226.0,3.7,476.0
TPE,louisa,松江長安門市,台北市中山區長安東路二段78-1號,中山區朱園里,121.533957,25.048335,16690.778379273743,-0.5000985576377885,2769267.0,2226.0,3.7,231.0
TPE,louisa,復北門市,台北市中山區復興北路380巷8號,中山區江寧里,121.543494,25.060994,39849.56759481466,-1.395183501217382,3332532.0,2591.0,3.8,376.0
TPE,louisa,南京門市,台北市中山區南京東路二段38號,中山區興亞里,121.529445,25.051881,21968.7477809728,0.0314843270238155,2835061.0,3773.0,3.7,476.0
TPE,louisa,民生松江門市,台北市中山區民生東路二段150號,中山區中吉里,121.532445,25.057821,30029.689818910883,-0.4022341195244472,2750941.0,4054.0,3.7,278.0
TPE,louisa,大直門市,台北市中山區北安路621巷49號,中山區大直里,121.546639,25.08302,14193.57851356997,-1.957954611540528,3928563.0,1721.0,3.8,245.0
TPE,louisa,伊通門市,台北市中山區伊通街85號,中山區中央里,121.534899,25.052855,14986.753326120555,-1.4515914528251774,1610149.0,3224.0,3.6,199.0
TPE,louisa,長春門市,台北市中山區長春路7號,中山區中山里,121.523546,25.055067,40836.41319827053,-0.122099768933559,2793229.0,2718.0,4.1,206.0
TPE,louisa,松江農安門市,台北市中山區松江路363號1樓,中山區行政里,121.533458,25.063825,41269.023307441785,-1.436663756832394,2008243.0,1544.0,3.2,186.0
TPE,louisa,撫順門市,台北市中山區撫順街33號,中山區集英里,121.519997,25.063545,20744.09637439897,-0.5990158578695226,2900878.0,2581.0,3.8,191.0
TPE,louisa,微風直營門市,台北市中山區復興南路一段42號,中山區埤頭里,121.543651,25.045309,18172.88568629984,-2.5247991176081896,1403888.0,3744.0,3.8,466.0
TPE,louisa,民權西門市,台北市中山區民權西路3號、5號,中山區集英里,121.52217,25.062974,20744.09637439897,-0.5990158578695226,2900878.0,2581.0,3.9,1230.0
TPE,louisa,晴光門市,台北市中山區雙城街17-6號,中山區晴光里,121.524361,25.065311,49924.21776174035,-0.5847909863359331,2439490.0,2161.0,3.4,384.0
TPE,louisa,金山南門市,台北市中正區金山南路一段8號1樓,中正區幸福里,121.529391,25.042279,19973.064994366418,-1.4101797200920974,2460771.0,2883.0,4.1,409.0
TPE,louisa,信陽直營門市,台北市中正區信陽街5號之2,中正區黎明里,121.5167,25.044699,5734.29678372022,0.5857702086999723,1631191.0,3884.0,3.7,415.0
TPE,louisa,重慶南門市,台北市中正區重慶南路一段77-2號,中正區黎明里,121.513551,25.044006,5734.29678372022,0.5857702086999723,1631191.0,3884.0,4.0,268.0
TPE,louisa,寶慶門市,台北市中正區衡陽路112號,中正區建國里,121.509955,25.04211,2974.320746175957,0.8190784593190928,860317.0,2782.0,3.7,146.0
TPE,louisa,南海直營門市,台北市中正區南海路24號,中正區龍福里,121.516716,25.032416,26014.12965903349,-4.059159656295316,2650936.0,4439.0,3.2,68.0
TPE,louisa,台北站前門市,台北市中正區忠孝西路一段38號B1-B櫃,中正區黎明里,121.516436,25.046215,5734.29678372022,0.5857702086999723,1631191.0,3884.0,3.6,156.0
TPE,louisa,南昌直營門市,台北市中正區南昌路一段123號1樓,中正區南福里,121.518324,25.029879,50312.98643856121,2.2103527210949254,6110280.0,2127.0,3.7,333.0
TPE,louisa,杭州門市,台北市中正區杭州南路一段153號,中正區文祥里,121.524591,25.035858,72693.02961504727,-0.0149651873221282,4468052.0,1960.0,4.0,349.0
TPE,louisa,信義新生門市,台北市中正區新生南路一段130號,中正區梅花里,121.5325,25.036911,6926.62825598684,-1.1404555520498685,1922928.0,4709.0,4.1,293.0
TPE,louisa,新光保險小舖門市,台北市中正區忠孝西路一段50號1樓,中正區黎明里,121.515823,25.046303,5734.29678372022,0.5857702086999723,1631191.0,3884.0,3.7,254.0
TPE,louisa,台大西址門市,台北市中正區常德街1號,中正區黎明里,121.517172,25.041399,5734.29678372022,0.5857702086999723,1631191.0,3884.0,4.1,201.0
TPE,louisa,信義永春門市,台北市信義區松山路562號,信義區松光里,121.578183,25.037362,44306.03221211958,-1.4008870382433258,1907779.0,2312.0,3.6,278.0
TPE,louisa,逸仙門市,台北市信義區逸仙路50巷6號,信義區興隆里,121.562096,25.040557,10281.30490135158,-4.033234982307876,1875517.0,6318.0,3.7,128.0
TPE,louisa,捷運市府門市,台北市信義區忠孝東路五段33號,信義區興雅里,121.565943,25.041308,22399.06076647384,-2.131715641858293,2435957.0,5774.0,3.7,309.0
TPE,louisa,永春概念門市,台北市信義區永吉路326巷50號,信義區五全里,121.575353,25.043866,57843.881877763306,-2.8082986131377536,1858986.0,2677.0,3.6,278.0
TPE,louisa,麟光門市,台北市信義區崇德街101號1樓,信義區黎順里,121.555904,25.024084,20686.3213333314,-1.9972378634456929,1702836.0,2320.0,3.5,53.0
TPE,louisa,北醫門市,台北市信義區莊敬路325巷36號,信義區三張里,121.564336,25.028537,30014.71087611474,-1.33597831846215,4064796.0,2673.0,3.8,12.0
TPE,louisa,信義松仁門市,台北市信義區松仁路242號,信義區六合里,121.569398,25.02458,5168.060287636808,-1.2032194290487443,3470802.0,,3.8,404.0
TPE,louisa,福德大道門市,台北市信義區福德街183號,信義區中坡里,121.583986,25.038018,10657.923990444106,-2.190117931099926,1564188.0,1640.0,4.2,214.0
TPE,louisa,永春門市,台北市信義區忠孝東路五段458號1樓,信義區富台里,121.576477,25.040686,39816.76760778728,-0.7362009135914189,1981177.0,3282.0,3.6,278.0
TPE,louisa,信義松德門市,台北市信義區松德路169巷3號,信義區安康里,121.575238,25.035983,21773.60486066081,-0.941526042059119,8391668.0,2173.0,3.6,182.0
TPE,louisa,葫洲成功直營門市,台北市內湖區成功路五段466號1樓,內湖區金湖里,121.606384,25.07329,12847.158715896674,-0.7300624485139906,7588398.0,2212.0,3.7,529.0
TPE,louisa,內湖堤頂門市,台北市內湖區堤頂大道二段239號,內湖區西湖里,121.566896,25.078195,15663.485203708558,-2.015517407925005,2656491.0,2370.0,3.7,264.0
TPE,louisa,民權成功門市,台北市內湖區民權東路六段117-1號,內湖區湖興里,121.592285,25.06911,15753.51245015254,-1.325484516082668,3030592.0,1621.0,4.0,354.0
TPE,louisa,內湖三民門市,台北市內湖區民權東路六段72號,內湖區湖元里,121.585179,25.068729,2354.8240154726204,-1.6090779492294278,2436938.0,1575.0,3.9,181.0
TPE,louisa,內湖家樂福門市,台北市內湖區民善街88號,內湖區湖元里,121.575365,25.060141,2354.8240154726204,-1.6090779492294278,2436938.0,1575.0,3.2,92.0
TPE,louisa,內湖CITYLINK門市,台北市內湖區成功路四段188號,內湖區內湖里,121.594547,25.084081,39958.036112448775,0.6199535700751675,2799230.0,1823.0,3.2,318.0
TPE,louisa,內湖洲子門市,台北市內湖區洲子街69號1樓,內湖區港墘里,121.572708,25.079567,9613.582377896171,-0.8184590318162618,2747906.0,2278.0,3.9,416.0
TPE,louisa,內湖成功直營門市,台北市內湖區成功路四段75號,內湖區清白里,121.592862,25.082279,23923.443649085624,-0.9550215860906284,5429764.0,1237.0,3.6,662.0
TPE,louisa,內湖文湖門市,台北市內湖區文湖街37號,內湖區西康里,121.561595,25.08676,8470.23465979684,-0.658879111548168,4657416.0,1960.0,4.0,415.0
TPE,louisa,內湖285門市,台北市內湖區內湖路一段285巷27弄1號,內湖區西湖里,121.567017,25.083244,15663.485203708558,-2.015517407925005,2656491.0,2370.0,3.5,135.0
TPE,louisa,內湖行善門市,台北市內湖區行善路62號,內湖區湖元里,121.576061,25.056961,2354.8240154726204,-1.6090779492294278,2436938.0,1575.0,4.0,438.0
TPE,louisa,內湖陽光門市,台北市內湖區瑞光路209號,內湖區港墘里,121.579038,25.073983,9613.582377896171,-0.8184590318162618,2747906.0,2278.0,4.0,482.0
TPE,louisa,內湖瑞光直營門市,台北市內湖區瑞光路431號,內湖區港墘里,121.571226,25.078243,9613.582377896171,-0.8184590318162618,2747906.0,2278.0,3.8,264.0
TPE,louisa,內湖文德門市,台北市內湖區文德路90巷38號,內湖區瑞陽里,121.582894,25.076965,39318.68889969509,-1.8311212158707828,3317689.0,1791.0,4.0,415.0
TPE,louisa,東湖門市,台北市內湖區東湖路33巷8號1樓,內湖區安湖里,121.613265,25.069306,51814.726189983085,-0.8104333399541493,3117732.0,3188.0,3.5,375.0
TPE,louisa,石牌門市,台北市北投區裕民三路3號,北投區振華里,121.516216,25.116164,27806.720973650023,-1.32882704297795,3135363.0,3231.0,3.4,359.0
TPE,louisa,明德直營門市,台北市北投區明德路119號,北投區榮華里,121.519946,25.109893,19590.039014794453,-1.23879324260859,3982536.0,1966.0,3.8,556.0
TPE,louisa,北投社直營門市,台北市北投區光明路65號1樓,北投區大同里,121.500097,25.132964,8830.866087816092,-2.87752031187809,2169240.0,2378.0,4.2,722.0
TPE,louisa,新北投直營門市,台北市北投區中和街22號,北投區中心里,121.503097,25.137847,15098.281184928255,-1.063735215602287,2354831.0,3333.0,3.8,395.0
TPE,louisa,南港站前門市,台北市南港區興華路28號,南港區東明里,121.605915,25.054943,18109.99350355522,5.35298623821879,2265416.0,1120.0,3.5,270.0
TPE,louisa,南港展覽館直營門市,台北市南港區經貿二路1號1樓商店街106-2,南港區三重里,121.617345,25.056376,7451.3328837748495,1.368015199290292,5225294.0,2335.0,2.4,69.0
TPE,louisa,南港中信門市,台北市南港區經貿二路186號b棟3樓,南港區三重里,121.615185,25.059222,7451.3328837748495,1.368015199290292,5225294.0,2335.0,3.0,204.0
TPE,louisa,後山埤門市,台北市南港區南港區中坡南路13號,南港區鴻福里,121.5828238,25.04379867,38160.509828507245,-1.8309102551929373,1714945.0,1577.0,3.7,571.0
TPE,louisa,松山站前門市,台北市南港區八德路四段786號,南港區玉成里,121.580437,25.0505,11625.129195012189,-1.392464322715862,1566241.0,3080.0,3.7,251.0
TPE,louisa,南港昆陽門市,台北市南港區昆陽街4號,南港區西新里,121.592322,25.053858,10184.807497786633,-1.7940145710829023,1574834.0,1424.0,3.3,226.0
TPE,louisa,CITYLINK南港門市,台北市南港區忠孝東路七段369號1F,南港區中南里,121.607208,25.052669,2156.3364620975462,-2.364998031582788,992878.0,1603.0,3.3,228.0
TPE,louisa,第三波咖啡南港蔦屋門市,台北市南港區忠孝東路7段369號2樓,南港區中南里,121.607208,25.052669,2156.3364620975462,-2.364998031582788,992878.0,1603.0,4.0,49.0
TPE,louisa,德行西門市,台北市士林區德行西路36號1樓,士林區德行里,121.523185,25.105267,23086.27482705442,-0.4740871615553328,1879543.0,2751.0,4.0,443.0
TPE,louisa,劍潭門市,台北市士林區劍潭路6號,士林區承德里,121.524356,25.083908,35025.79658360594,-1.161273771354665,2372860.0,1905.0,4.0,448.0
TPE,louisa,芝山直營門市,台北市士林區福國路38號,士林區德行里,121.524107,25.102298,23086.27482705442,-0.4740871615553328,1879543.0,2751.0,4.0,475.0
TPE,louisa,天母忠誠門市,台北市士林區天母東路67之1號,士林區天山里,121.534398,25.118237,42770.1224656397,-0.9466397329400243,3232662.0,1800.0,4.1,277.0
TPE,louisa,東吳大學門市,台北市士林區臨溪路70號,士林區福林里,121.545751,25.094446,1433.364351090113,-2.379690432351496,1359341.0,3875.0,4.4,15.0
TPE,louisa,基河新光門市,台北市士林區基河路250號,士林區福德里,121.520843,25.091701,19783.63779274654,-1.8864694108600883,1818464.0,2723.0,3.9,301.0
TPE,louisa,天母東直營門市,台北市士林區天母東路8巷31弄2號,士林區天福里,121.53191,25.116789,31858.90012502573,-0.5995128537852779,2811877.0,1905.0,3.8,342.0
TPE,louisa,士林前港門市,台北市士林區前港街11號1樓,士林區前港里,121.52265,25.084911,27313.324967613647,-2.029644919624059,1677631.0,2089.0,3.3,261.0
TPE,louisa,劍潭承德門市,台北市士林區承德路四段53號,士林區承德里,121.522968,25.081327,35025.79658360594,-1.161273771354665,2372860.0,1905.0,4.0,448.0
TPE,louisa,士林中正直營門市,台北市士林區中正路303號,士林區福德里,121.523719,25.094663,19783.63779274654,-1.8864694108600883,1818464.0,2723.0,4.1,122.0
TPE,louisa,士林新光門市,台北市士林區文昌路42號,士林區福佳里,121.521574,25.095569,15267.504851394611,-1.1736740378683366,3094444.0,2133.0,3.8,462.0
TPE,louisa,酒泉門市,台北市大同區酒泉街139號,大同區至聖里,121.514289,25.07214,34161.35139064609,-1.824902108387624,2667975.0,1168.0,4.1,296.0
TPE,louisa,中山承德直營門市,台北市大同區南京西路65號,大同區光能里,121.518932,25.053118,43157.00380037817,-0.956768936386195,1841575.0,4300.0,3.5,894.0
TPE,louisa,京站門市,台北市大同區華陰街87號,大同區建明里,121.51774,25.049762,21679.756337171104,-2.6617841592189606,1336075.0,2040.0,3.8,318.0
TPE,louisa,雙連門市,台北市大同區民生西路132號,大同區光能里,121.519026,25.057327,43157.00380037817,-0.956768936386195,1841575.0,4300.0,3.5,894.0
TPE,louisa,庫倫承德門市,台北市大同區承德路三段238號,大同區保安里,121.518561,25.072524,22075.68569501692,-2.1396559329845743,1437235.0,2035.0,4.2,243.0
TPE,louisa,圓山直營門市,台北市大同區酒泉街35號,大同區至聖里,121.519018,25.070682,34161.35139064609,-1.824902108387624,2667975.0,1168.0,3.7,524.0
TPE,louisa,師大直營門市,台北市大安區和平東路一段79號,大安區錦華里,121.52528,25.027054,58404.54412461435,0.0406888326782854,3539366.0,2310.0,4.0,656.0
TPE,louisa,台大卓越門市,台北市大安區羅斯福路四段1號2樓,中正區水源里,121.5337,25.016981,7938.931950934741,-0.4441672418021181,1177893.0,4688.0,4.0,124.0
TPE,louisa,復興辛亥門市,台北市大安區辛亥路二段205號,大安區龍淵里,121.542314,25.021629,58623.91922778076,-0.5701345177185531,4839859.0,1767.0,3.2,344.0
TPE,louisa,市民門市,台北市大安區光復南路102號1樓,大安區華聲里,121.557481,25.043464,30932.354720605304,-1.0671675087595922,2199569.0,5222.0,4.3,101.0
TPE,louisa,遠企門市,台北市大安區敦化南路二段100號,大安區群賢里,121.548387,25.027857,40099.32584185052,-1.4901884547768418,3164367.0,4269.0,3.6,273.0
TPE,louisa,仁愛敦化門市,台北市大安區仁愛路四段122巷4號,大安區敦安里,121.550222,25.036949,36504.079884274535,-0.9971817850142598,4242354.0,2124.0,3.1,52.0
TPE,louisa,國父紀念館門市,台北市大安區光復南路302號1樓,大安區正聲里,121.557446,25.038978,44492.702678856185,-2.1408298717292773,3665399.0,3222.0,3.8,951.0
TPE,louisa,通化門市,台北市大安區通化街84號,大安區通化里,121.554073,25.030006,52598.05455926029,-0.7276535600304463,2422355.0,3740.0,3.1,52.0
TPE,louisa,大安門市,台北市大安區信義路四段28號,大安區住安里,121.544462,25.033165,37166.86616201101,-2.460769920344659,2335518.0,3220.0,3.9,943.0
TPE,louisa,台北三興門市,台北市大安區基隆路二段134號,大安區臨江里,121.556734,25.028631,56280.66313386457,-1.5165162505399308,1309416.0,2538.0,3.6,97.0
TPE,louisa,瑞安直營門市,台北市大安區建國南路二段151巷40號,大安區新龍里,121.539463,25.028652,76862.6135622693,-0.4062799318289123,3545882.0,2764.0,4.1,834.0
TPE,louisa,忠孝SOGO門市,台北市大安區復興南路一段133-1號,大安區光武里,121.544214,25.042764,37131.21454223301,-1.4931504734489267,3643217.0,5203.0,3.7,359.0
TPE,louisa,信義金山直營門市,台北市大安區信義路二段128號,大安區永康里,121.528143,25.033767,31997.07455318371,-0.3879108995447892,2133014.0,5057.0,3.7,261.0
TPE,louisa,第三波咖啡大安森林公園直營門市,台北市大安區信義路三段100號B1,大安區龍門里,121.536285,25.033322,9098.204588934392,0.1728615736658501,2767534.0,1826.0,3.9,943.0
TPE,louisa,信義光復門市,台北市大安區光復南路626號1樓,大安區通化里,121.557275,25.031784,52598.05455926029,-0.7276535600304463,2422355.0,3740.0,3.8,951.0
TPE,louisa,和平新生門市,台北市大安區和平東路一段228號,大安區龍坡里,121.532298,25.026091,41471.136763587805,-0.647329410316851,3355350.0,3364.0,4.0,271.0
TPE,louisa,國泰門市,台北市大安區仁愛路四段300巷13-2號,大安區光信里,121.554516,25.036766,57255.34162721282,-1.347133175535845,4260737.0,2077.0,3.2,237.0
TPE,louisa,金華門市,台北市大安區金華街150號1樓,大安區錦安里,121.529417,25.029717,40308.49735640168,-0.0066682694634205,4024522.0,4377.0,3.1,57.0
TPE,louisa,建國門市,台北市大安區瑞安街151號,大安區龍生里,121.539489,25.026481,56282.88911479816,-0.6473520797857606,3988748.0,3217.0,3.7,476.0
TPE,louisa,木新門市,台北市文山區木新路三段177號,文山區樟腳里,121.560467,24.981539,31595.16869461484,-2.0209009321257314,2400789.0,1336.0,4.0,278.0
TPE,louisa,萬芳醫院門市,台北市文山區興隆路三段119號,文山區興光里,121.558159,24.998978,9837.284633384994,0.2506951508991347,1420246.0,3559.0,3.6,535.0
TPE,louisa,木柵直營門市,台北市文山區木柵路三段63號,文山區木柵里,121.566668,24.988688,16248.877607976943,-0.256942227696492,4560710.0,1800.0,3.8,617.0
TPE,louisa,景美SOHO門市,台北市文山區羅斯福路六段146號,文山區景仁里,121.540942,24.995854,23108.10429328943,3.859406077704245,2378552.0,1839.0,4.0,1071.0
TPE,louisa,政大門市,台北市文山區萬壽路3號1樓,文山區萬興里,121.575782,24.987902,2935.045209965007,-0.5960606859766848,4072411.0,1500.0,3.5,196.0
TPE,louisa,景美門市,台北市文山區景中街13號,文山區景華里,121.541895,24.993036,33440.60951692598,-0.9098707892136292,2292730.0,1688.0,4.0,1071.0
TPE,louisa,民生富錦直營門市,台北市松山區三民路113巷1-3號,松山區三民里,121.563295,25.057931,50936.90007568448,-1.2328705774337014,3271597.0,3826.0,3.8,380.0
TPE,louisa,CITYLINK松山貳號門市,台北市松山區市民大道六段131號,松山區慈祐里,121.578755,25.0496,27650.057474992504,-0.3575180954236886,2393420.0,3578.0,4.2,3270.0
TPE,louisa,民生光復門市,台北市松山區民生東路五段3號,松山區東榮里,121.555588,25.05843,31155.173777128584,-0.878431978362304,4853375.0,3193.0,3.8,177.0
TPE,louisa,松山蔦屋門市,台北市松山區市民大道六段131號1樓,松山區慈祐里,121.578755,25.0496,27650.057474992504,-0.3575180954236886,2393420.0,3578.0,3.0,19.0
TPE,louisa,慶城門市,台北市松山區慶城街14-1號,松山區中正里,121.545272,25.053151,29466.572383481845,-1.142283607167164,5786935.0,2554.0,3.4,97.0
TPE,louisa,小巨蛋門市,台北市松山區南京東路四段69號,松山區東勢里,121.553064,25.051846,48624.10399842985,-1.321430623645329,2174535.0,3816.0,3.7,499.0
TPE,louisa,民生圓環門市,台北市松山區新東街33號,松山區富錦里,121.565729,25.059711,52291.6568160672,-1.3280464549128013,2356196.0,2132.0,3.7,500.0
TPE,louisa,八德光復門市,台北市松山區八德路三段237號1+2樓,松山區復勢里,121.557297,25.048266,49360.933285512845,-1.1586730790063302,3033459.0,3560.0,3.4,181.0
TPE,louisa,民權復興門市,台北市松山區民權東路三段132號1樓,松山區民有里,121.546229,25.06184,32173.69790922893,-1.48568348970007,5637140.0,3369.0,3.3,139.0
TPE,louisa,八德台安門市,台北市松山區八德路二段429號,松山區中正里,121.546634,25.048314,29466.572383481845,-1.142283607167164,5786935.0,2554.0,3.8,376.0
TPE,louisa,八德監理門市,台北市松山區八德路四段36巷2-1號,松山區復盛里,121.559137,25.047619,40022.90886578901,-2.252715368394872,2436851.0,2192.0,3.7,150.0
TPE,louisa,麥帥門市,台北市松山區南京東路五段250巷2弄19號,松山區新聚里,121.567142,25.050788,52762.67911817818,-1.7180853774011684,3373427.0,1654.0,4.2,276.0
TPE,louisa,萬華龍山門市,台北市萬華區和平西路三段143號,萬華區青山里,121.498912,25.035423,16736.810564051786,-0.4137982593268141,1385419.0,2756.0,4.1,446.0
TPE,louisa,萬華寶興門市,台北市萬華區寶興街71號,萬華區忠德里,121.494245,25.026451,53625.8797903317,-0.6731214431802062,1176897.0,1650.0,4.0,276.0
TPE,louisa,萬華西藏門市,台北市萬華區西藏路125巷5號,萬華區新忠里,121.502298,25.028941,76146.92142697646,-0.7915825780208774,978587.0,,3.4,314.0
TPE,louisa,桂林門市,台北市萬華區桂林路26號,萬華區仁德里,121.505397,25.037604,43070.46737696541,-1.6207289192678775,1961003.0,2042.0,3.9,703.0
TPE,louisa,萬大門市,台北市萬華區萬大路441號,萬華區興德里,121.498502,25.021031,7062.282837263876,-2.4217588799021987,1013429.0,1688.0,3.6,169.0
NTC,louisa,三峽復興門市,新北市三峽區復興路11號,三峽區永舘里,121.374086,24.936035,22199.02871127091,-1.1547936202923823,1754063.0,1750.0,3.8,412.0
NTC,louisa,三峽國際門市,新北市三峽區國際一街1號1樓,三峽區龍恩里,121.374719,24.943192,7206.358266478573,1.8219293413087807,2483303.0,2013.0,3.9,296.0
NTC,louisa,三峽學成門市,新北市三峽區學成路325號,三峽區龍學里,121.377205,24.944627,41692.7803536846,0.8366909515847768,6217723.0,1179.0,4.1,284.0
NTC,louisa,三重旗艦門市,新北市三重區重新路五段609巷2-1號,三重區中興里,121.468435,25.045563,5571.268990625547,0.0268936687123281,1158026.0,1169.0,3.6,214.0
NTC,louisa,三重重新門市,新北市三重區重新路三段94號,三重區大同里,121.492863,25.060594,54387.90387246708,-0.3904023201955375,559657.0,2500.0,3.8,639.0
NTC,louisa,三重忠孝門市,新北市三重區忠孝路二段99-1號,三重區培德里,121.484016,25.069956,23064.92758820261,-1.2872188911425533,997475.0,,4.0,373.0
NTC,louisa,三重徐匯門市,新北市三重區仁愛街690號,三重區慈愛里,121.481531,25.080166,60616.18772887074,-1.0672864117041492,612846.0,1600.0,4.1,531.0
NTC,louisa,台北橋門市,新北市三重區重新路二段12號,三重區光榮里,121.499553,25.062702,42172.7543520468,-0.9031346706391682,401623.0,3033.0,3.7,311.0
NTC,louisa,三重成功門市,新北市三重區成功路98號,三重區福德里,121.487739,25.051313,40495.629440880446,0.771898601821756,1129608.0,800.0,3.8,292.0
NTC,louisa,三重龍門門市,新北市三重區三和路三段84號1樓,三重區尚德里,121.494528,25.071762,31594.44925782016,-1.4880214687289506,665826.0,1285.0,3.7,427.0
NTC,louisa,三重自強門市,新北市三重區自強路一段236號,三重區正義里,121.493277,25.066998,29426.32987743806,-0.9366718787784092,465619.0,,4.1,404.0
NTC,louisa,三重溪尾門市,新北市三重區溪尾街175號,三重區慈化里,121.488839,25.080392,51090.94069723046,-0.1392583484296346,535504.0,800.0,3.9,255.0
NTC,louisa,三重三和門市,新北市三重區三和路二段156號1樓,三重區長安里,121.499357,25.068435,49126.94306916951,-2.112074159292584,461423.0,2714.0,4.2,702.0
NTC,louisa,蘆洲家樂福門市,新北市三重區集智街56號,三重區碧華里,121.486338,25.087429,29828.396626840244,2.601318275916824,3555307.0,1046.0,4.3,218.0
NTC,louisa,三重五華門市,新北市三重區五華街97號,三重區五華里,121.491758,25.083708,67139.4903848704,-0.5802692062890784,1656189.0,,3.8,150.0
NTC,louisa,中和復興門市,新北市中和區復興路331號,中和區中興里,121.500523,24.990203,22283.576349957217,-0.961257343747146,2465636.0,,4.0,406.0
NTC,louisa,中和概念門市,新北市中和區連城路250號1樓,中和區平河里,121.487221,24.996876,23044.608457676182,-0.7147529494821707,2743197.0,1312.0,3.1,59.0
NTC,louisa,南勢角門市,新北市中和區捷運路63號,中和區景福里,121.508931,24.989744,41369.2741701994,-0.311435607081408,2060755.0,2005.0,3.9,428.0
NTC,louisa,中和景平直營門市,新北市中和區景平路675號,中和區福真里,121.496515,25.002797,49319.93437125542,-1.4785450741401809,1004395.0,1278.0,4.0,367.0
NTC,louisa,捷運景安門市,新北市中和區景安路175-2號,中和區景安里,121.50527,24.994171,37031.26262667422,0.6509372464491718,1438451.0,2330.0,3.9,271.0
NTC,louisa,中和中和門市,新北市中和區中和路55號,中和區枋寮里,121.500414,25.00127,22669.55833201125,-0.1635313802615871,1076896.0,1601.0,3.8,579.0
NTC,louisa,中和立德門市,新北市中和區立德街150號,中和區中原里,121.486209,25.00868,5714.260089981111,9.94952441688719,2230550.0,1333.0,3.7,103.0
NTC,louisa,中和自立門市,新北市中和區自立路5號,中和區秀福里,121.5226,24.996572,44168.28990255813,-0.0123842025632055,1467716.0,1142.0,3.9,303.0
NTC,louisa,中和宜安直營門市,新北市中和區宜安路180號,中和區安平里,121.508521,24.999355,63702.40031549497,-0.926306220934133,2653404.0,3460.0,4.1,313.0
NTC,louisa,中和新生門市,新北市中和區新生街136號,中和區信和里,121.483521,25.000986,59736.720626130045,-1.2549747469356554,900142.0,,4.1,367.0
NTC,louisa,永安市場門市,新北市中和區中和路400巷19號,中和區中安里,121.511576,25.002417,56261.39081287344,-0.7945740499115672,1832720.0,4334.0,3.8,579.0
NTC,louisa,雙和圓通門市,新北市中和區圓通路295-2號,中和區錦中里,121.494671,24.991976,7410.35960396559,-1.400087955243127,1035463.0,1301.0,3.9,342.0
NTC,louisa,中和南華門市,新北市中和區南華路65號,中和區南山里,121.504444,24.997295,65020.11925512528,-1.122132699122247,2049374.0,2083.0,3.9,321.0
NTC,louisa,中和中正門市,新北市中和區中正路918號,中和區中原里,121.48302,25.0083,5714.260089981111,9.94952441688719,2230550.0,1333.0,3.7,174.0
NTC,louisa,積穗員山門市,新北市中和區員山路492號,中和區員山里,121.479888,25.007075,25770.73389188112,0.0068413864401447,1910881.0,5882.0,3.4,99.0
NTC,louisa,中和建康門市,新北市中和區建康路95號,中和區平河里,121.487872,25.000367,23044.608457676182,-0.7147529494821707,2743197.0,1312.0,4.1,157.0
NTC,louisa,中和莒光門市,新北市中和區莒光路158號,中和區德穗里,121.472524,25.000498,43169.7413032385,-0.8222745003203377,1224286.0,777.0,3.9,235.0
NTC,louisa,景平大勇門市,新北市中和區大仁街19巷8號,中和區秀明里,121.517349,24.993296,53681.1636100513,-0.8960102378853622,1562389.0,,4.0,367.0
NTC,louisa,金城二門市,新北市土城區金城路三段30號,土城區金城里,121.465408,24.986294,110994.3467424965,-0.7105678032872949,1538932.0,1338.0,3.9,273.0
NTC,louisa,土城裕民門市,新北市土城區裕民路99號,土城區樂利里,121.450781,24.98692,71145.3919467493,-1.3969975567674098,1212966.0,1168.0,4.0,689.0
NTC,louisa,土城頂埔門市,新北市土城區中央四段62之3號,土城區頂埔里,121.4197054,24.96032002,4076.715550878542,-0.5410707189154855,1213220.0,1234.0,3.8,306.0
NTC,louisa,土城中央直營門市,新北市土城區中央路2段248號,土城區土城里,121.441792,24.974826,46581.284125842125,-0.1354927334661878,446827.0,,4.0,414.0
NTC,louisa,金城門市,新北市土城區明德路一段95號,土城區永富里,121.46566,24.983041,34244.18509679997,1.378373146045497,995845.0,,3.7,213.0
NTC,louisa,土城日月光門市,新北市土城區中央路二段61巷37號,土城區員林里,121.444961,24.97833,24802.68358526502,6.920059272572754,1739660.0,1736.0,4.2,255.0
NTC,louisa,新店佳瑪門市,新北市新店區建國路268號,新店區復興里,121.537662,24.983082,5239.354457744582,-1.462681377249305,941190.0,2691.0,3.9,674.0
NTC,louisa,新店中正門市,新北市新店區中正路510號,新店區復興里,121.533895,24.98307,5239.354457744582,-1.462681377249305,941190.0,2691.0,4.1,447.0
NTC,louisa,大坪林門市,新北市新店區北新路三段43號,新店區明德里,121.54182,24.980378,37769.13981789072,-0.4434839500542094,1528294.0,2925.0,4.2,215.0
NTC,louisa,北新門市,新北市新店區北新路一段321號,新店區新德里,121.541486,24.968299,35853.04370691958,-0.8789319292540713,818980.0,1315.0,3.4,412.0
NTC,louisa,七張門市,新北市新店區永華街33巷28號,新店區寶興里,121.544324,24.976748,17254.4826180953,0.4885626061896945,2891298.0,1207.0,4.2,107.0
NTC,louisa,小碧潭門市,新北市新店區中央路133巷8號,新店區福民里,121.530691,24.973623,14464.003260031275,-1.2640013833017605,1491911.0,1184.0,3.8,177.0
NTC,louisa,新店安康門市,新北市新店區安康路二段95號,新店區公崙里,121.513084,24.962669,8026.938840137651,3.17803842055584,4048582.0,2272.0,3.8,273.0
NTC,louisa,新店捷運門市,新北市新店區北宜路一段26號,新店區張南里,121.537961,24.957101,18733.9772851119,2.9219015987417203,803548.0,2857.0,3.6,359.0
NTC,louisa,新店寶橋門市,新北市新店區寶橋路212號,新店區寶福里,121.551062,24.978446,4596.579006497143,-0.1476553716328155,2811377.0,1859.0,3.9,93.0
NTC,louisa,新店建國門市,新北市新店區中正路244號之2,新店區仁愛里,121.539541,24.973272,29518.059505890804,-1.009236582680876,648833.0,4705.0,3.9,674.0
NTC,louisa,新莊思源門市,新北市新莊區幸福路536號,新莊區幸福里,121.455599,25.04945,85056.28550464244,-0.7130582799470246,861497.0,,4.2,295.0
NTC,louisa,新莊立信門市,新北市新莊區立信三街12巷18號,新莊區立廷里,121.44441,25.051158,46153.09344175473,2.9541922413168704,4366660.0,2063.0,3.9,163.0
NTC,louisa,新莊中正門市,新北市新莊區中正路879-1號1樓,新莊區裕民里,121.417978,25.026357,40202.33146993629,-0.9088542203241624,1497467.0,1430.0,3.8,340.0
NTC,louisa,新莊昌平門市,新北市新莊區昌平街46號,新莊區昌信里,121.454795,25.05346,95907.28289619804,-0.0069047569457877,1142836.0,1213.0,4.0,288.0
NTC,louisa,新莊後港門市,新北市新莊區後港一路90號,新莊區建福里,121.427436,25.026717,64733.37988083422,-0.8152550498327749,560780.0,1562.0,3.1,12.0
NTC,louisa,新莊中原門市,新北市新莊區中原東路127號,新莊區頭前里,121.461225,25.054209,14427.621534263651,5.303485143996397,3899806.0,1493.0,4.1,566.0
NTC,louisa,新北園區門市,新北市新莊區五權一路36號,新莊區福興里,121.457534,25.065351,17226.178554466227,0.1267952965561776,1569152.0,1421.0,3.8,579.0
NTC,louisa,新莊新月橋門市,新北市新莊區新泰路2-21號,新莊區泰豐里,121.450121,25.032228,13537.57626455551,-0.0738936771007262,591330.0,,4.5,21.0
NTC,louisa,精品烘豆廠直營門市,新北市新莊區建國一路55號,新莊區福營里,121.4347517,25.03062616,3632.137417528453,-2.6511365465595143,699528.0,1685.0,4.1,960.0
NTC,louisa,新莊建中門市,新北市新莊區建中街5號,新莊區文聖里,121.449828,25.037471,41763.55652224693,-1.1638983641790426,1136960.0,3192.0,3.3,197.0
NTC,louisa,新莊富國門市,新北市新莊區富國路164號,新莊區南港里,121.423514,25.024795,46306.66536994098,-0.9329235669840528,1256619.0,3064.0,4.1,334.0
NTC,louisa,新莊幸福門市,新北市新莊區幸福路773號,新莊區中平里,121.446915,25.049022,76837.52061437814,1.58107755139311,2857923.0,8789.0,4.2,295.0
NTC,louisa,新莊龍安門市,新北市新莊區龍安路529號,新莊區光正里,121.427747,25.017769,73053.95057855317,-0.7250364006687882,1036970.0,2016.0,4.2,234.0
NTC,louisa,板橋正隆門市,新北市板橋區民生路一段35號,板橋區海山里,121.475739,25.012664,68761.7519952081,-1.2326304919676456,2642120.0,1422.0,3.4,277.0
NTC,louisa,板橋莊敬門市,新北市板橋區莊敬路41號,板橋區忠翠里,121.473285,25.026978,46026.76696458954,-0.2866012753461729,5111619.0,2090.0,3.8,459.0
NTC,louisa,新北市議會門市,新北市板橋區文化路二段113號,板橋區文化里,121.469618,25.026434,26181.10594559684,-0.6193935454543869,1137387.0,2427.0,3.9,241.0
NTC,louisa,新板特區門市,新北市板橋區區運路105號,板橋區華興里,121.456048,25.004501,61702.59756695871,-1.02154019570464,1258043.0,2111.0,4.4,631.0
NTC,louisa,新北市立圖書館門市,新北市板橋區貴興路139號,板橋區華東里,121.454955,25.001712,15641.54307170118,1.1417444778987949,3539135.0,3384.0,3.8,114.0
NTC,louisa,板橋重慶門市,新北市板橋區重慶路195號,板橋區福星里,121.462914,25.001964,26686.498206553344,-1.4155087423090982,1189520.0,897.0,4.0,243.0
NTC,louisa,新海直營門市,新北市板橋區雨農路58號,板橋區新翠里,121.460711,25.024184,66271.48898991571,0.9095512498479508,2536992.0,1296.0,3.8,499.0
NTC,louisa,板橋國光門市,新北市板橋區國光路189-5號,板橋區公館里,121.461442,25.018654,51697.04700397714,-0.1487346492341057,966821.0,,4.0,481.0
NTC,louisa,板橋環球門市,新北市板橋區縣民大道二段7號B1,板橋區福丘里,121.463635,25.01433,20359.21107721245,0.4416789044410674,3018264.0,2155.0,2.0,118.0
NTC,louisa,板橋文化門市,新北市板橋區文化路一段309之37號1樓,板橋區忠誠里,121.465594,25.019833,34134.89025578005,0.6899364152192018,1383429.0,3184.0,3.7,869.0
NTC,louisa,板橋新埔門市,新北市板橋區民生路三段21號,板橋區新埔里,121.467085,25.023852,34447.57069883394,-0.8253529333174617,623340.0,2876.0,3.6,275.0
NTC,louisa,板橋中正門市,新北市板橋區中正路349號,板橋區香社里,121.454669,25.020674,16921.968365137207,1.2707460957437946,990845.0,1285.0,3.8,280.0
NTC,louisa,江子翠門市,新北市板橋區文化路二段367號,板橋區柏翠里,121.473095,25.031026,6286.002729824667,4.059029583202648,1408720.0,1941.0,4.0,486.0
NTC,louisa,新板市府門市,新北市板橋區新民街43號1樓,板橋區福丘里,121.463896,25.010778,20359.21107721245,0.4416789044410674,3018264.0,2155.0,4.1,538.0
NTC,louisa,板橋合宜門市,新北市板橋區合宜路175號1樓,板橋區中山里,121.447163,24.99836,17323.828851600916,2.074579880002829,1656995.0,1546.0,4.2,264.0
NTC,louisa,亞東醫院門市,新北市板橋區南雅南路二段130號,板橋區華東里,121.451925,24.996782,15641.54307170118,1.1417444778987949,3539135.0,3384.0,3.7,54.0
NTC,louisa,板橋館前門市,新北市板橋區館前東路9號,板橋區景星里,121.459858,25.007255,41284.97696855608,-0.5963294567438677,1084762.0,2534.0,3.8,193.0
NTC,louisa,板橋中山門市,新北市板橋區中山路二段167號,板橋區西安里,121.475889,25.016862,35960.88007333519,-0.6817738971146643,763844.0,3006.0,4.3,218.0
NTC,louisa,埔墘直營門市,新北市板橋區三民路二段101號,板橋區長壽里,121.479378,25.016175,30986.774137971293,-0.3686774816913226,759779.0,1222.0,4.1,595.0
NTC,louisa,板橋門市,新北市板橋區文化路一段17號,板橋區挹秀里,121.457785,25.010235,16296.916450123968,1.2550536460382546,849442.0,3333.0,2.0,118.0
NTC,louisa,板橋傑仕堡門市,新北市板橋區縣民大道二段277號1樓,板橋區百壽里,121.469519,25.017651,55798.06259922851,1.87905401621166,782302.0,2727.0,3.8,274.0
NTC,louisa,環球A9門市,新北市林口區文化三路一段2號4樓,林口區南勢里,121.361399,25.066147,6952.096520265434,10.359882106826465,10578817.0,1832.0,3.5,134.0
NTC,louisa,林口忠孝門市,新北市林口區忠孝一路12號,林口區南勢里,121.364383,25.073093,6952.096520265434,10.359882106826465,10578817.0,1832.0,4.0,371.0
NTC,louisa,林口仁愛門市,新北市林口區仁愛路二段249號,林口區南勢里,121.374191,25.076851,6952.096520265434,10.359882106826465,10578817.0,1832.0,4.1,208.0
NTC,louisa,林口高中門市,新北市林口區仁愛路二段188號,林口區西林里,121.38052,25.073972,11292.66604172896,3.8018000853018505,3610018.0,1021.0,3.9,421.0
NTC,louisa,林口影視門市,新北市林口區信義路162號1樓,林口區湖南里,121.379212,25.080204,9650.28327288775,6.065477644605174,9703793.0,1473.0,4.1,306.0
NTC,louisa,林口文化門市,新北市林口區文化一路一段55號,林口區仁愛里,121.371239,25.06992,24629.3023495053,0.223072698639933,2940345.0,1219.0,3.3,194.0
NTC,louisa,林口扶輪公園門市,新北市林口區文化三路一段460號,林口區南勢里,121.369288,25.075001,6952.096520265434,10.359882106826465,10578817.0,1832.0,3.7,497.0
NTC,louisa,樹林中山門市,新北市樹林區中山路一段115號,樹林區樹西里,121.422935,24.990447,35662.72982181796,-0.8008798351136844,1579911.0,1130.0,3.8,346.0
NTC,louisa,三峽桃子腳門市,新北市樹林區學成路709號,樹林區南園里,121.384187,24.946794,11953.40277732665,0.8386823450147851,5934044.0,1777.0,4.1,284.0
NTC,louisa,樹林興仁花園門市,新北市樹林區保安街二段70號,樹林區金寮里,121.415437,25.002958,6844.762627994206,0.7493714673076468,939717.0,,4.1,577.0
NTC,louisa,樹林站前門市,新北市樹林區博愛一街18號,樹林區樹東里,121.425377,24.990966,6478.991520794448,0.307920598431514,303509.0,480.0,4.1,257.0
NTC,louisa,北大家樂福門市,新北市樹林區大雅路282號,樹林區南園里,121.379956,24.947306,11953.40277732665,0.8386823450147851,5934044.0,1777.0,4.0,4109.0
NTC,louisa,永和中山門市,新北市永和區中山路一段271號,永和區和平里,121.507272,25.007173,45147.13101149231,-1.0269740205883635,1699236.0,2754.0,3.9,125.0
NTC,louisa,永和得和門市,新北市永和區得和路160號,永和區民族里,121.51954,25.000041,57214.7623899998,-1.0090377570162032,1605769.0,951.0,4.0,175.0
NTC,louisa,永和竹林門市,新北市永和區竹林路160號,永和區豫溪里,121.52027,25.010406,64763.44561163981,-0.1782671049888939,1199297.0,1625.0,3.8,181.0
NTC,louisa,永和安樂門市,新北市永和區安樂路270號,永和區永安里,121.514568,25.004102,78098.97067519774,-0.6544722958422937,1651829.0,,4.0,277.0
NTC,louisa,永和捷運門市,新北市永和區仁愛路313號1樓,永和區保安里,121.5034498,25.00793973,29497.069212002167,-1.52682080446076,3040572.0,2964.0,3.7,126.0
NTC,louisa,永和頂溪門市,新北市永和區永和路二段92巷3號1樓,永和區正興里,121.515257,25.01154,42575.756803198026,-2.0698545321861177,772578.0,3301.0,3.8,401.0
NTC,louisa,永和仁愛門市,新北市永和區仁愛路110號,永和區仁愛里,121.511902,25.013214,49532.45588900466,-0.7519476041322786,901012.0,2052.0,4.1,337.0
NTC,louisa,永和秀朗門市,新北市永和區永元路95巷3號,永和區永元里,121.522287,25.001954,64776.77490447174,-0.9868175900385504,1536953.0,1909.0,4.0,175.0
NTC,louisa,永和永貞門市,新北市永和區中正路393號1樓,永和區店街里,121.517211,25.004072,65271.35247200824,-0.9013506545082408,1657276.0,1714.0,4.2,253.0
NTC,louisa,永和樂華門市,新北市永和區永和路ㄧ段113號,永和區協和里,121.513788,25.008016,43770.11739089274,-0.7995811342336919,808549.0,2543.0,3.4,201.0
NTC,louisa,汐止夢想社區門市,新北市汐止區民族二街100號1樓,汐止區湖光里,121.632448,25.069626,7528.748167798219,1.6862863001281998,2332307.0,1340.0,4.1,251.0
NTC,louisa,汐止門市,新北市汐止區新台五路一段176號,汐止區自強里,121.654694,25.062518,37350.74215326031,3.044952512442034,1996405.0,1355.0,4.1,251.0
NTC,louisa,汐止福德門市,新北市汐止區福德一路118號,汐止區康福里,121.637308,25.067803,40563.4961789496,0.5546745434342231,1798809.0,1274.0,3.8,212.0
NTC,louisa,汐科門市,新北市汐止區新北市汐止區新台五路一段75號B1,汐止區復興里,121.6457499,25.06118172,39070.83765716913,0.2423895026010628,3108012.0,1960.0,4.0,41.0
NTC,louisa,汐止大同門市,新北市汐止區大同路二段312巷18號,汐止區大同里,121.655907,25.065723,46722.6497189373,0.0915894559616603,839850.0,2084.0,3.8,279.0
NTC,louisa,汐止中興門市,新北市汐止區中興路226號,汐止區中興里,121.630853,25.066659,22820.706541138326,0.8944388909259379,2273886.0,1688.0,3.9,169.0
NTC,louisa,汐止建成直營門市,新北市汐止區建成路60號,汐止區建成里,121.663407,25.073153,24703.69994051382,-0.2251314405370112,1822411.0,1084.0,4.0,346.0
NTC,louisa,泰山十八甲門市,新北市泰山區仁愛路122號,泰山區全興里,121.433769,25.055644,69734.94354562063,0.2088737593566166,3273219.0,1777.0,3.9,290.0
NTC,louisa,泰山貴子門市,新北市泰山區明志路三段66號,泰山區貴子里,121.424837,25.041983,3364.571566733819,0.591905945830451,1112564.0,600.0,4.1,132.0
NTC,louisa,淡水新市直營門市,新北市淡水區新市一路三段100號,淡水區北投里,121.446198,25.182776,3422.519384756358,1.812770737967669,3480259.0,,3.9,462.0
NTC,louisa,淡水滬尾門市,新北市淡水區中正路一段2號2樓,淡水區油車里,121.429053,25.176596,3711.317551428043,0.015008731579306,1371549.0,,3.9,363.0
NTC,louisa,淡水水源門市,新北市淡水區水源街1段91號1樓,淡水區中興里,121.445579,25.172322,9926.633549367529,-0.4559969293964923,826381.0,,4.0,217.0
NTC,louisa,竹圍門市,新北市淡水區民權路38號,淡水區竹圍里,121.459812,25.137302,26291.076671435967,-0.1447941663119086,2106064.0,898.0,3.9,404.0
NTC,louisa,淡水捷運門市,新北市淡水區中正路1號,淡水區幸福里,121.445554,25.168232,7488.467797288967,-1.8294361040531728,945955.0,2051.0,3.7,122.0
NTC,louisa,淡水沙崙直營門市,新北市淡水區沙崙路137號,淡水區大庄里,121.423034,25.182949,16091.130643617727,9.70143399690464,2570721.0,1944.0,4.0,259.0
NTC,louisa,深坑東南門市,新北市深坑區北深路三段204號,深坑區萬順里,121.601369,25.00382,9235.625522123586,0.0427360920149055,653329.0,1916.0,4.0,203.0
NTC,louisa,瑞金門市,新北市瑞芳區明燈路三段65號,瑞芳區龍潭里,121.805588,25.108156,10140.225364640137,-0.3973443858010128,186165.0,,4.4,33.0
NTC,louisa,蘆洲長榮門市,新北市蘆洲區長榮路412號,蘆洲區正義里,121.459689,25.087979,23458.84770713887,2.2529647208720123,5147118.0,1911.0,3.8,446.0
NTC,louisa,蘆洲中山門市,新北市蘆洲區中山二路272號1樓,蘆洲區永安里,121.468926,25.078399,56706.48801013693,0.0772646455603561,1136303.0,1333.0,4.3,218.0
NTC,louisa,蘆洲集賢門市,新北市蘆洲區集賢路346號,蘆洲區仁義里,121.480946,25.084167,77778.35652779913,-0.2680737565441996,1167792.0,,4.1,531.0
NTC,louisa,金山老街門市,新北市金山區中山路184號,金山區金美里,121.638116,25.221367,12524.610234776126,-0.580437904789477,900865.0,,3.5,171.0
NTC,louisa,鶯歌門市,新北市鶯歌區中正一路82號,鶯歌區中鶯里,121.352399,24.954431,12045.857884096946,-1.3541576337693892,252612.0,1300.0,4.3,201.0
TPE,stbks,華碩企總門市,台北市立德路15號3樓,北投區一德里,121.471438,25.124942,2818.0324882780587,-1.13862105404016,2557267.0,1058.0,3.4,8.0
TPE,stbks,興和門市,台北市復興南路二段275號,大安區群賢里,121.543648,25.025577,40099.32584185052,-1.4901884547768418,3164367.0,4269.0,4.0,490.0
TPE,stbks,石牌門市,台北市石牌路二段74號,北投區振華里,121.516203,25.116513,27806.720973650023,-1.32882704297795,3135363.0,3231.0,3.9,645.0
TPE,stbks,中山門市,台北市中山區中山北路二段171號1~2樓,中山區恆安里,121.522842,25.062978,38794.34495285343,0.0757945193323431,2117078.0,2943.0,4.0,52.0
TPE,stbks,大直樂群門市,台北市中山區樂群二路 267 號 1-2F,中山區金泰里,121.560319,25.08012,7344.064101939221,0.1566459456922094,5937431.0,3264.0,4.2,419.0
TPE,stbks,大直植福門市,台北市中山區敬業二路115號1樓,中山區成功里,121.554222,25.083221,10693.122623534107,-1.1796330089498022,5679811.0,3145.0,4.2,903.0
TPE,stbks,龍權門市,台北市中山區民權東路三段22號1樓(民權東路與龍江路口),中山區江寧里,121.540527,25.062135,39849.56759481466,-1.395183501217382,3332532.0,2591.0,4.1,617.0
TPE,stbks,民權門市,台北市中山區民權東路三段88號1樓(復興北路民權東路口),中山區江寧里,121.543708,25.06211,39849.56759481466,-1.395183501217382,3332532.0,2591.0,4.3,1729.0
TPE,stbks,松江長安門市,台北市中山區松江路54號1樓,中山區興亞里,121.532752,25.04868,21968.7477809728,0.0314843270238155,2835061.0,3773.0,4.1,457.0
TPE,stbks,林森農安,台北市中山區林森北路568號,中山區恆安里,121.525555,25.064726,38794.34495285343,0.0757945193323431,2117078.0,2943.0,4.2,531.0
TPE,stbks,南京林森門市,台北市中山區南京東路一段52號,中山區正得里,121.524669,25.05195,24953.495137385096,-0.8080099136045386,1859218.0,2674.0,4.0,686.0
TPE,stbks,馬偕門市,台北市中山區民生西路7號,中山區集英里,121.521717,25.057918,20744.09637439897,-0.5990158578695226,2900878.0,2581.0,4.0,674.0
TPE,stbks,美麗華門市,台北市中山區敬業三路20號1F,中山區金泰里,121.556712,25.082926,7344.064101939221,0.1566459456922094,5937431.0,3264.0,4.0,880.0
TPE,stbks,松江門市,台北市中山區松江路210號,中山區中吉里,121.532909,25.057748,30029.689818910883,-0.4022341195244472,2750941.0,4054.0,4.1,1071.0
TPE,stbks,實踐門市,台北市中山區大直街70號1樓(位於實踐大學後門),中山區大直里,121.546234,25.083587,14193.57851356997,-1.957954611540528,3928563.0,1721.0,4.1,185.0
TPE,stbks,南京復興門市,台北市中山區南京東路三段224號1F,中山區力行里,121.543728,25.051659,21085.12931049232,0.0006004314568652,3990206.0,2892.0,4.1,656.0
TPE,stbks,南京建國門市,台北市中山區南京東路三段1號,中山區復華里,121.537187,25.052216,21224.91595284512,-0.4143777498369398,2723005.0,2451.0,4.1,1195.0
TPE,stbks,松江錦州門市,台北市中山區松江路239號1樓,中山區松江里,121.533455,25.059197,33570.083333341936,-1.3080094299967668,2988501.0,1718.0,4.2,444.0
TPE,stbks,林森門市,台北市中山區林森北路247號1樓,中山區康樂里,121.52556,25.054131,16829.53899042861,-0.1775897092349006,1127700.0,3179.0,4.0,516.0
TPE,stbks,忠新門市,台北市中正區忠孝東路二段134巷2號,中正區幸市里,121.531706,25.041964,26122.24180970343,-2.3789097471844656,2834326.0,4967.0,4.1,938.0
TPE,stbks,紹興門市,台北市中正區忠孝東路一段31號一樓,中正區梅花里,121.525336,25.044536,6926.62825598684,-1.1404555520498685,1922928.0,4709.0,4.1,837.0
TPE,stbks,台北捷運門市,台北市中正區忠孝西路一段49號B1,中正區黎明里,121.51767,25.047066,5734.29678372022,0.5857702086999723,1631191.0,3884.0,4.1,415.0
TPE,stbks,杭州門市,台北市中正區信義路二段1號之1,中正區文祥里,121.524658,25.035516,72693.02961504727,-0.0149651873221282,4468052.0,1960.0,4.0,642.0
TPE,stbks,許昌南陽門市,台北市中正區南陽街1號2F,中正區黎明里,121.516229,25.045715,5734.29678372022,0.5857702086999723,1631191.0,3884.0,4.0,360.0
TPE,stbks,懷寧門市,"台北市中正區懷寧街10號1,2,3樓(懷寧街與開封街口)",中正區黎明里,121.5142209,25.04618709,5734.29678372022,0.5857702086999723,1631191.0,3884.0,4.1,856.0
TPE,stbks,重慶門市,台北市中正區重慶南路一段104號,中正區光復里,121.513086,25.042432,12649.652578401554,-0.5278111110776547,1658650.0,3334.0,4.2,1339.0
TPE,stbks,台醫B1門市,台北市中正區中山南路7號B1,中正區黎明里,121.518558,25.040776,5734.29678372022,0.5857702086999723,1631191.0,3884.0,3.9,83.0
TPE,stbks,寶平門市,台北市中正區寶慶路32號1F,中正區建國里,121.509114,25.041688,2974.320746175957,0.8190784593190928,860317.0,2782.0,4.0,365.0
TPE,stbks,青島西門市,台北市中正區青島西路7號一樓,中正區黎明里,121.518182,25.044913,5734.29678372022,0.5857702086999723,1631191.0,3884.0,4.2,1936.0
TPE,stbks,機捷A1門市,台北市中正區鄭州路8號B1,中正區黎明里,121.514536,25.048788,5734.29678372022,0.5857702086999723,1631191.0,3884.0,4.3,508.0
TPE,stbks,台鐵一門市,台北市中正區北平西路3號2樓,中正區黎明里,121.517058,25.047176,5734.29678372022,0.5857702086999723,1631191.0,3884.0,4.0,316.0
TPE,stbks,南海門市,台北市中正區南海路20號,中正區龍福里,121.517011,25.032492,26014.12965903349,-4.059159656295316,2650936.0,4439.0,4.2,1146.0
TPE,stbks,館前漢口門市,台北市中正區館前路26號1樓,中正區黎明里,121.514906,25.044879,5734.29678372022,0.5857702086999723,1631191.0,3884.0,4.1,891.0
TPE,stbks,公館水源門市,台北市中正區思源街16號,中正區富水里,121.530574,25.014308,8890.218083153719,-1.0079758530166705,1101086.0,2262.0,4.1,256.0
TPE,stbks,站前誠品門市,台北市中正區忠孝西路一段47號B1,中正區黎明里,121.516761,25.04688,5734.29678372022,0.5857702086999723,1631191.0,3884.0,4.0,52.0
TPE,stbks,三創門市,台北市中正區市民大道三段2號,中正區梅花里,121.531021,25.045632,6926.62825598684,-1.1404555520498685,1922928.0,4709.0,4.1,482.0
TPE,stbks,101-B1門市,台北市信義區市府路45號B1,信義區西村里,121.563903,25.034026,11068.765051709444,-1.2116072327724936,1865725.0,2238.0,4.0,309.0
TPE,stbks,南山門市,台北市信義區莊敬路168號1F(南山人壽總部大樓),信義區景新里,121.561094,25.03177,24066.68294620556,-0.8379766696634464,3119196.0,3591.0,4.1,23.0
TPE,stbks,新光門市,台北市信義區松壽路11號1F,信義區西村里,121.56728,25.036072,11068.765051709444,-1.2116072327724936,1865725.0,2238.0,3.5,132.0
TPE,stbks,信義南山門市,台北市信義區松仁路100號2樓,信義區西村里,121.568126,25.034459,11068.765051709444,-1.2116072327724936,1865725.0,2238.0,4.1,23.0
TPE,stbks,台北三興門市,台北市信義區基隆路二段99之1號,信義區嘉興里,121.557759,25.029707,53680.5880660259,-1.829917621295148,1180055.0,2364.0,4.2,481.0
TPE,stbks,台北時代門市,台北市信義區忠孝東路五段8號2F,信義區興雅里,121.565417,25.040865,22399.06076647384,-2.131715641858293,2435957.0,5774.0,3.9,746.0
TPE,stbks,Bellavita-B1門市,台北市信義區松仁路28號B1,信義區興雅里,121.568124,25.039511,22399.06076647384,-2.131715641858293,2435957.0,5774.0,4.2,474.0
TPE,stbks,北醫門市,台北市信義區吳興街252號1樓(台北醫學院第三醫療大樓一樓),信義區雙和里,121.563638,25.026637,27264.627039757608,-1.6152835712993123,2721242.0,1666.0,3.9,408.0
TPE,stbks,信義松德門市,台北市信義區信義路六段1號,信義區安康里,121.574771,25.033913,21773.60486066081,-0.941526042059119,8391668.0,2173.0,4.1,716.0
TPE,stbks,統誠門市,台北市信義區松高路11號1樓,信義區西村里,121.565242,25.039515,11068.765051709444,-1.2116072327724936,1865725.0,2238.0,4.1,152.0
TPE,stbks,永春門市,台北市信義區忠孝東路五段297號1樓(位於ATT樓下),信義區富台里,121.572849,25.041146,39816.76760778728,-0.7362009135914189,1981177.0,3282.0,4.1,595.0
TPE,stbks,時代B2,台北市信義區忠孝東路5段8號B2,信義區興雅里,121.565417,25.040865,22399.06076647384,-2.131715641858293,2435957.0,5774.0,3.0,11.0
TPE,stbks,松山車站門市,台北市信義區松山路11號1樓,信義區永吉里,121.578252,25.048456,32744.43776827745,-1.7584067806151182,916899.0,2485.0,4.1,653.0
TPE,stbks,統豐門市,台北市信義區東興路65號,信義區新仁里,121.566599,25.04701,5633.089548834146,-1.6528949685268302,1601497.0,1908.0,4.1,324.0
TPE,stbks,松仁門市,台北市信義區松仁路7號,信義區安康里,121.568865,25.038264,21773.60486066081,-0.941526042059119,8391668.0,2173.0,4.2,474.0
TPE,stbks,北醫吳興門市,台北市信義區吳興街220巷1號,信義區景勤里,121.562904,25.027667,21929.177812630744,-2.45021907184569,1330649.0,1072.0,4.0,427.0
TPE,stbks,港墘門市,台北市內湖區瑞光路216號1樓,內湖區港墘里,121.576162,25.075358,9613.582377896171,-0.8184590318162618,2747906.0,2278.0,4.1,546.0
TPE,stbks,內湖文德門市,台北市內湖區文德路212號,內湖區紫陽里,121.584047,25.07832,19892.446101340145,-1.3380393468072072,3676669.0,2129.0,4.4,420.0
TPE,stbks,基湖門市,台北市內湖區基湖路25號,內湖區西湖里,121.565107,25.080642,15663.485203708558,-2.015517407925005,2656491.0,2370.0,4.2,469.0
TPE,stbks,洲子門市,台北市內湖區洲子街48號,內湖區港墘里,121.573307,25.079042,9613.582377896171,-0.8184590318162618,2747906.0,2278.0,4.2,654.0
TPE,stbks,內湖成功門市,台北市內湖區成功路四段147號1~2樓,內湖區清白里,121.593819,25.082996,23923.443649085624,-0.9550215860906284,5429764.0,1237.0,4.2,455.0
TPE,stbks,潤湖門市,台北市內湖區成功路四段188號2F,內湖區內湖里,121.594547,25.084081,39958.036112448775,0.6199535700751675,2799230.0,1823.0,3.9,123.0
TPE,stbks,瑞傳門市,台北市內湖區瑞光路476號,內湖區港墘里,121.569554,25.078522,9613.582377896171,-0.8184590318162618,2747906.0,2278.0,4.1,388.0
TPE,stbks,西湖門市,台北市內湖區內湖路一段360巷2-1號,內湖區西湖里,121.570494,25.081028,15663.485203708558,-2.015517407925005,2656491.0,2370.0,4.0,417.0
TPE,stbks,康寧門市,台北市內湖區康寧路三段72號,內湖區南湖里,121.611273,25.070209,16389.411340673425,-0.165786284778117,3440872.0,,4.0,522.0
TPE,stbks,內湖民權門市,台北市內湖區民權東路六段182號,內湖區湖興里,121.592918,25.068612,15753.51245015254,-1.325484516082668,3030592.0,1621.0,4.3,1729.0
TPE,stbks,舊宗門市,台北市內湖區舊宗路一段188號一樓,內湖區湖元里,121.575989,25.062653,2354.8240154726204,-1.6090779492294278,2436938.0,1575.0,4.0,579.0
TPE,stbks,環山門市,台北市內湖區內湖路一段289號(西湖捷運站旁),內湖區西湖里,121.567133,25.082317,15663.485203708558,-2.015517407925005,2656491.0,2370.0,4.0,417.0
TPE,stbks,舊宗新湖門市,台北市內湖區新湖二路128號 (近內湖大潤發1館),內湖區湖元里,121.578846,25.062491,2354.8240154726204,-1.6090779492294278,2436938.0,1575.0,4.1,561.0
TPE,stbks,內湖陽光門市,台北市內湖區陽光街290號,內湖區湖元里,121.57555,25.072835,2354.8240154726204,-1.6090779492294278,2436938.0,1575.0,4.1,297.0
TPE,stbks,內湖葫洲門市,台北市內湖區民權東路6段312號1F,內湖區葫洲里,121.606043,25.072852,33054.572398451244,-0.6334049082248772,3809324.0,1246.0,4.2,530.0
TPE,stbks,台北榮總門市,台北市北投區石牌路二段201號,北投區永欣里,121.519166,25.119181,11825.964856453538,0.6605439915891835,5683140.0,,4.0,194.0
TPE,stbks,關渡門市,台北市北投區大度路三段296巷45號1樓,北投區一德里,121.466853,25.124621,2818.0324882780587,-1.13862105404016,2557267.0,1058.0,4.2,766.0
TPE,stbks,光明門市,台北市北投區光明路218-4號,北投區長安里,121.504368,25.136237,31029.757527630773,-0.879984836740603,2194717.0,2645.0,4.1,550.0
TPE,stbks,北投大業門市,台北市北投區大業路302號,北投區中央里,121.498031,25.128478,30893.94933787493,-1.979792853836641,3164638.0,2117.0,4.3,853.0
TPE,stbks,南港高鐵門市,台北市南港區忠孝東路七段371號B2,南港區中南里,121.607496,25.052571,2156.3364620975462,-2.364998031582788,992878.0,1603.0,4.1,197.0
TPE,stbks,南港車站門市,台北市南港區忠孝東路7段359號A棟1樓,南港區中南里,121.606056,25.052512,2156.3364620975462,-2.364998031582788,992878.0,1603.0,4.0,487.0
TPE,stbks,南港三重門市,台北市南港區南港路一段114號,南港區三重里,121.613758,25.055444,7451.3328837748495,1.368015199290292,5225294.0,2335.0,4.1,441.0
TPE,stbks,南園門市,台北市南港區園區街3號2樓之7,南港區三重里,121.611987,25.058478,7451.3328837748495,1.368015199290292,5225294.0,2335.0,3.9,87.0
TPE,stbks,南港門市,台北市南港區三重路19-10號1樓,南港區三重里,121.613519,25.058139,7451.3328837748495,1.368015199290292,5225294.0,2335.0,4.1,197.0
TPE,stbks,南港中信門市,台北市南港區經貿二路186號1樓,南港區三重里,121.615185,25.059222,7451.3328837748495,1.368015199290292,5225294.0,2335.0,4.4,572.0
TPE,stbks,士捷門市,台北市士林區中正路239號,士林區福林里,121.525871,25.095151,1433.364351090113,-2.379690432351496,1359341.0,3875.0,4.1,791.0
TPE,stbks,天母中山門市,台北市士林區中山北路6段719號1F,士林區天壽里,121.527593,25.115123,24822.357325206674,-0.4801628565871556,3059189.0,1638.0,4.1,367.0
TPE,stbks,振興門市,台北市士林區振興街37號,樹林區南園里,121.3799313,24.94763793,11953.40277732665,0.8386823450147851,5934044.0,1777.0,4.1,850.0
TPE,stbks,士林門市,台北市士林區文林路122號,士林區仁勇里,121.52645,25.088341,31935.038004579543,-2.2569285235763585,1266108.0,3269.0,4.1,791.0
TPE,stbks,天母崇光門市,台北市士林區中山北路六段77號B1,士林區德行里,121.524278,25.105007,23086.27482705442,-0.4740871615553328,1879543.0,2751.0,3.9,236.0
TPE,stbks,草山門市,台北市士林區國泰街5號,士林區陽明里,121.542942,25.136246,1400.2933822917526,-0.5268346443523402,1591792.0,,4.4,1865.0
TPE,stbks,士林承德門市,台北市士林區承德路四段67號,士林區承德里,121.523219,25.081704,35025.79658360594,-1.161273771354665,2372860.0,1905.0,4.0,599.0
TPE,stbks,忠誠門市,台北市士林區士東路123號,士林區天祿里,121.530677,25.112438,37789.09438410452,-1.1722861121640746,2386849.0,2044.0,4.2,293.0
TPE,stbks,天玉門市,台北市士林區天玉街38巷18弄1號,士林區天玉里,121.529767,25.119595,35462.54610756712,-1.1936799367195197,4711672.0,2392.0,4.4,2382.0
TPE,stbks,庫倫承德門市,台北市大同區庫倫街51號,大同區至聖里,121.51925,25.072044,34161.35139064609,-1.824902108387624,2667975.0,1168.0,4.2,1529.0
TPE,stbks,台北圓環門市,台北市大同區南京西路288號,大同區建功里,121.513989,25.053909,38823.133107570415,-0.8546355751181641,1634602.0,2309.0,4.2,1221.0
TPE,stbks,保安門市,台北市大同區保安街11號,大同區延平里,121.513199,25.05926,45347.02320759156,-1.171617071394785,1338553.0,1884.0,4.4,3119.0
TPE,stbks,南京西門市,台北市大同區南京西路36號1F,大同區建泰里,121.519576,25.052675,30955.766105813625,-1.645254118838431,1562629.0,3465.0,4.1,578.0
TPE,stbks,京站二門市,台北市大同區承德路一段1號4F,大同區建明里,121.516784,25.04909,21679.756337171104,-2.6617841592189606,1336075.0,2040.0,3.5,17.0
TPE,stbks,京站門市,台北市大同區承德路一段1號1F,大同區建明里,121.516784,25.04909,21679.756337171104,-2.6617841592189606,1336075.0,2040.0,3.7,394.0
TPE,stbks,敦和門市,台北市大安區敦化南路二段263號,大安區全安里,121.549121,25.025517,33432.977314011354,-1.221863022742934,2823065.0,4045.0,4.2,479.0
TPE,stbks,羅斯福門市,台北市大安區羅斯福路三段301號,大安區大學里,121.531859,25.017447,45612.20539650289,-0.2215433181810648,4643860.0,1541.0,4.2,702.0
TPE,stbks,忠孝延吉門市,台北市大安區忠孝東路四段230號,大安區車層里,121.553932,25.041204,52235.02986114866,-1.1391250192385924,4043221.0,4856.0,4.1,482.0
TPE,stbks,仁愛延吉門市,台北市大安區延吉街175號,大安區正聲里,121.555457,25.038277,44492.702678856185,-2.1408298717292773,3665399.0,3222.0,4.1,504.0
TPE,stbks,通化門市,台北市大安區文昌街209號,大安區通化里,121.554509,25.032456,52598.05455926029,-0.7276535600304463,2422355.0,3740.0,4.0,597.0
TPE,stbks,龍門門市,台北市大安區忠孝東路四段134號,大安區仁愛里,121.548356,25.041333,24419.36184067723,-1.9434139324837687,4153950.0,4279.0,4.3,2275.0
TPE,stbks,和平門市,台北市大安區和平東路一段2號(古亭站四號出口),大安區古莊里,121.522907,25.026824,34230.50324792905,0.8295320928445982,3769138.0,3146.0,3.9,896.0
TPE,stbks,復安門市,台北市大安區復興南路一段135巷9號 (SOGO百貨忠孝館後門對面),大安區光武里,121.544825,25.042724,37131.21454223301,-1.4931504734489267,3643217.0,5203.0,4.0,447.0
TPE,stbks,公館門市,台北市大安區羅斯福路四段26號一、二、三樓,中正區文盛里,121.5331434,25.01562108,24170.67725848128,3.3676818985766133,1086607.0,4802.0,4.0,1398.0
TPE,stbks,建和門市,台北市大安區和平東路二段42-1號,大安區龍門里,121.537302,25.025445,9098.204588934392,0.1728615736658501,2767534.0,1826.0,4.1,674.0
TPE,stbks,永康街2F門市,台北市大安區永康街2號2樓,大安區永康里,121.529726,25.033214,31997.07455318371,-0.3879108995447892,2133014.0,5057.0,4.1,608.0
TPE,stbks,師大雲和門市,台北市大安區師大路74號,大安區龍泉里,121.528192,25.023596,54874.388741148825,1.4411007152942634,2643091.0,3410.0,4.0,694.0
TPE,stbks,敦富門市,台北市大安區敦化南路二段59號1樓(近敦化南路信義路口),大安區義安里,121.549194,25.031196,30537.58209428585,-1.0389453219592355,3844691.0,2370.0,4.1,646.0
TPE,stbks,敦誠門市,台北市大安區敦化南路一段245號G樓,大安區建倫里,121.5495363,25.039339,37710.81747880526,-0.986778955176056,4386578.0,4186.0,4.1,646.0
TPE,stbks,辛亥門市,台北市大安區辛亥路二段175號,大安區龍淵里,121.541245,25.021688,58623.91922778076,-0.5701345177185531,4839859.0,1767.0,4.1,1107.0
TPE,stbks,崇光門市,台北市大安區忠孝東路四段45號B1,大安區光武里,121.544883,25.041902,37131.21454223301,-1.4931504734489267,3643217.0,5203.0,4.0,169.0
TPE,stbks,崇興門市,台北市大安區忠孝東路三段300號B2,大安區誠安里,121.543057,25.041212,36865.63907497207,-1.6982506421758063,1906932.0,4662.0,3.9,104.0
TPE,stbks,敦南門市,台北市大安區敦化南路二段101號,大安區義安里,121.549183,25.028753,30537.58209428585,-1.0389453219592355,3844691.0,2370.0,4.1,258.0
TPE,stbks,興南門市,台北市大安區復興南路一段323號1樓(大安捷運站出口正對面),大安區仁慈里,121.543808,25.03376,47650.26670549039,-0.1075774855597029,3559340.0,1825.0,4.1,1069.0
TPE,stbks,同領門市,台北市大安區忠孝東路四段201號(捷運忠孝敦化站二號出口，同領廣場一樓),大安區建安里,121.551773,25.041678,32731.53217965089,-1.9321270953113423,3039876.0,4619.0,3.4,141.0
TPE,stbks,華視門市,台北市大安區光復南路180巷14號(華視停車場旁),大安區華聲里,121.556897,25.042531,30932.354720605304,-1.0671675087595922,2199569.0,5222.0,4.1,627.0
TPE,stbks,木柵門市,台北市文山區木柵路三段75號,文山區木柵里,121.566909,24.988721,16248.877607976943,-0.256942227696492,4560710.0,1800.0,4.1,556.0
TPE,stbks,萬芳門市,台北市文山區興隆路三段111號,文山區興得里,121.55833,25.000305,9587.564505289612,-1.0138290215939705,2083801.0,2381.0,3.9,427.0
TPE,stbks,政大門市,台北市文山區指南路二段105號,文山區萬興里,121.575706,24.987832,2935.045209965007,-0.5960606859766848,4072411.0,1500.0,4.1,389.0
TPE,stbks,木新門市,台北市文山區木新路3段162號,文山區樟新里,121.561066,24.981887,29144.12015966489,-1.3160095124291913,2580525.0,1869.0,4.2,509.0
TPE,stbks,景美門市,台北市文山區景興路185號1-2F,文山區景華里,121.544355,24.992591,33440.60951692598,-0.9098707892136292,2292730.0,1688.0,4.2,772.0
TPE,stbks,北寧門市,台北市松山區南京東路四段56號1樓(台北體育館旁),松山區美仁里,121.553847,25.051437,16941.311151316353,-0.0230335214696915,1806613.0,3940.0,4.1,472.0
TPE,stbks,敦化門市,台北市松山區敦化北路147號1樓(近長庚醫院),松山區中華里,121.549359,25.053908,33991.447492751264,-0.2412939224685365,4211157.0,4385.0,4.0,511.0
TPE,stbks,微風南京門市,台北市松山區南京東路三段337號1樓,松山區中正里,121.547995,25.051963,29466.572383481845,-1.142283607167164,5786935.0,2554.0,3.9,79.0
TPE,stbks,京華門市,台北市松山區八德路四段138號,松山區復盛里,121.562447,25.048351,40022.90886578901,-2.252715368394872,2436851.0,2192.0,4.1,472.0
TPE,stbks,三民門市,台北市松山區民生東路五段158號,松山區三民里,121.562877,25.058596,50936.90007568448,-1.2328705774337014,3271597.0,3826.0,4.0,763.0
TPE,stbks,民生門市,台北市松山區民生東路三段105號,松山區民有里,121.544747,25.057981,32173.69790922893,-1.48568348970007,5637140.0,3369.0,4.2,482.0
TPE,stbks,松山機場門市,台北市松山區敦化北路340-9號2F(一航廈),松山區精忠里,121.549815,25.063374,2017.1525851305707,-0.2587678637916646,2562417.0,4141.0,4.1,194.0
TPE,stbks,南京三民門市,台北市松山區南京東路五段171號1樓,松山區東光里,121.56352,25.051622,36900.13471537036,-1.952800883867874,3394181.0,9026.0,4.1,982.0
TPE,stbks,台視門市,台北市松山區八德路三段10號,松山區敦化里,121.549826,25.04804,52587.13943671021,-1.372783493489571,3483634.0,4593.0,4.1,465.0
TPE,stbks,慶城門市,台北市松山區慶城街1號1樓,松山區中正里,121.544632,25.052761,29466.572383481845,-1.142283607167164,5786935.0,2554.0,3.9,403.0
TPE,stbks,微風廣場門市,台北市松山區復興南路一段39號GF,松山區中崙里,121.544126,25.046129,50089.33954483317,-0.5742544086064487,2164630.0,4444.0,4.0,365.0
TPE,stbks,宏泰門市,台北市松山區民生東路三段156-1號(宏泰大樓),松山區松基里,121.547681,25.057169,21150.871349328656,-0.9991871032571265,2911446.0,3101.0,4.1,351.0
TPE,stbks,西門桂林門市,台北市萬華區桂林路1號,萬華區仁德里,121.506304,25.037675,43070.46737696541,-1.6207289192678775,1961003.0,2042.0,4.0,382.0
TPE,stbks,艋舺門市,台北市萬華區西園路一段306巷24號 & 26號,萬華區富福里,121.498397,25.033532,30777.56994762269,-1.8281466517153195,1514932.0,2617.0,4.5,2946.0
TPE,stbks,西門成都門市,台北市萬華區成都路87號,萬華區西門里,121.504741,25.043149,26509.87919140661,-1.659900826861464,1282956.0,6142.0,4.1,933.0
TPE,stbks,漢中門市,台北市萬華區漢中街51號,萬華區萬壽里,121.507481,25.044114,18289.4591152021,-2.330547523226419,1136466.0,4913.0,4.2,1936.0
TPE,stbks,西門昆明門市,台北市萬華區武昌街二段77號,萬華區萬壽里,121.505709,25.045076,18289.4591152021,-2.330547523226419,1136466.0,4913.0,3.9,339.0
TPE,stbks,萬華西藏門市,台北市萬華區西藏路123號,萬華區新忠里,121.502506,25.029501,76146.92142697646,-0.7915825780208774,978587.0,,4.1,964.0
NTC,stbks,三峽學成門市,新北市三峽區學成路317號,三峽區龍學里,121.377211,24.944289,41692.7803536846,0.8366909515847768,6217723.0,1179.0,4.2,868.0
NTC,stbks,三重三和門市,新北市三重區三和路四段388-2號,三重區永清里,121.482066,25.079049,67812.94205652164,-0.7769980342127318,1176491.0,,4.2,702.0
NTC,stbks,三重菜寮門市,新北市三重區新北大道1段6號,三重區錦田里,121.488619,25.061548,41994.40398344697,0.2698835918014008,536264.0,,4.3,1374.0
NTC,stbks,三重門市,新北市三重區正義北路13號(門市靠近天台),三重區文化里,121.497811,25.062894,33207.231039787286,-2.821457146245236,568666.0,2303.0,4.2,702.0
NTC,stbks,三重正義門市,新北市三重區正義北路140號,三重區中央里,121.496636,25.065982,48150.27921121134,0.2673095818275536,370363.0,1752.0,4.2,836.0
NTC,stbks,湯城門市,新北市三重區重新路五段609巷10號之3,三重區中興里,121.468117,25.045928,5571.268990625547,0.0268936687123281,1158026.0,1169.0,3.8,173.0
NTC,stbks,湯城門市,新北市三重區重新路五段609巷10號之3,三重區中興里,121.468117,25.045928,5571.268990625547,0.0268936687123281,1158026.0,1169.0,3.8,173.0
NTC,stbks,二重門市,新北市三重區重新路五段654號,三重區中興里,121.467123,25.04307,5571.268990625547,0.0268936687123281,1158026.0,1169.0,3.9,143.0
NTC,stbks,二重門市,新北市三重區重新路五段654號(新莊IKEA旁的家樂福賣場1樓),三重區中興里,121.467123,25.04307,5571.268990625547,0.0268936687123281,1158026.0,1169.0,3.9,143.0
NTC,stbks,重陽集賢門市,新北市三重區集賢路137號,三重區富貴里,121.489138,25.089341,14705.669883769322,0.6626763117745682,2644871.0,1647.0,4.3,1121.0
NTC,stbks,環球門市,新北市中和區中山路三段122號,中和區員山里,121.475689,25.006077,25770.73389188112,0.0068413864401447,1910881.0,5882.0,4.1,681.0
NTC,stbks,雙和醫院門市,新北市中和區中正路291號,中和區力行里,121.494082,24.993746,55701.31393039141,-0.9671260571083214,2078912.0,618.0,3.8,167.0
NTC,stbks,立言門市,新北市中和區中正路866號1F,中和區中原里,121.48429,25.005949,5714.260089981111,9.94952441688719,2230550.0,1333.0,4.1,318.0
NTC,stbks,南勢角門市,新北市中和區和平街1號,中和區景福里,121.510301,24.989875,41369.2741701994,-0.311435607081408,2060755.0,2005.0,4.0,948.0
NTC,stbks,中科門市,新北市中和區建一路152號,中和區平河里,121.487458,24.998446,23044.608457676182,-0.7147529494821707,2743197.0,1312.0,4.0,363.0
NTC,stbks,中和遠科門市,新北市中和區連城路268號,中和區平河里,121.486496,24.996853,23044.608457676182,-0.7147529494821707,2743197.0,1312.0,3.8,145.0
NTC,stbks,中和遠科門市,新北市中和區連城路268號1樓,中和區平河里,121.486496,24.996853,23044.608457676182,-0.7147529494821707,2743197.0,1312.0,3.8,145.0
NTC,stbks,中和連城門市,新北市中和區連城路71號1-2樓,中和區廟美里,121.49744,25.001083,47478.00279988096,-0.92370421302439,1151263.0,2518.0,4.3,931.0
NTC,stbks,土城日月光門市,新北市土城區學府路二段210號1F,土城區員林里,121.445127,24.978764,24802.68358526502,6.920059272572754,1739660.0,1736.0,4.4,225.0
NTC,stbks,土城金城門市,新北市土城區金城路三段11號1樓,土城區延和里,121.46465,24.986315,60936.93898089984,1.2276681404795355,1602074.0,1648.0,4.2,1051.0
NTC,stbks,土城門市,新北市土城區青雲路152號1樓,土城區青雲里,121.459012,24.983385,11850.24351699005,2.30790797454142,695577.0,,4.4,225.0
NTC,stbks,新店中正門市,新北市新店區中正路265號,新店區中正里,121.538049,24.97399,30510.705812185646,-1.2731170513311962,2038014.0,3102.0,3.9,612.0
NTC,stbks,新中門市,新北市新店區中興路三段3號,新店區寶興里,121.545244,24.977564,17254.4826180953,0.4885626061896945,2891298.0,1207.0,3.9,994.0
NTC,stbks,新店總站門市,新北市新店區北宜路一段2號,新店區張南里,121.537784,24.957871,18733.9772851119,2.9219015987417203,803548.0,2857.0,4.1,483.0
NTC,stbks,新店總站門市,新北市新店區北宜路一段2號2F,新店區張南里,121.537784,24.957871,18733.9772851119,2.9219015987417203,803548.0,2857.0,4.1,483.0
NTC,stbks,新店門市,新北市新店區北新路一段305號,新店區新德里,121.541303,24.96777,35853.04370691958,-0.8789319292540713,818980.0,1315.0,4.1,483.0
NTC,stbks,慈濟門市,新北市新店區建國路289號2樓,新店區復興里,121.535808,24.98578,5239.354457744582,-1.462681377249305,941190.0,2691.0,4.1,198.0
NTC,stbks,北新門市,新北市新店區民權路27號,新店區大同里,121.540906,24.982665,43450.14485641117,-1.690948445746369,1568303.0,2102.0,4.1,805.0
NTC,stbks,新店建國門市,新北市新店區民權路78號,新店區復興里,121.537443,24.983059,5239.354457744582,-1.462681377249305,941190.0,2691.0,4.1,395.0
NTC,stbks,新莊中正門市,新北市新莊區中正路178號,新莊區文聖里,121.450034,25.035726,41763.55652224693,-1.1638983641790426,1136960.0,3192.0,4.1,718.0
NTC,stbks,新莊尚德門市,新北市新莊區中正路518號,新莊區營盤里,121.432072,25.032133,1318.1016781070678,-7.532965223287806,607361.0,1057.0,4.0,182.0
NTC,stbks,新莊雙鳳門市,新北市新莊區中正路702號,新莊區雙鳳里,121.417507,25.026539,8812.19457398814,1.8417699708432729,3566185.0,,4.2,1218.0
NTC,stbks,新莊門市,新北市新莊區幸福路763-3號1F之1,新莊區中港里,121.447615,25.049057,73916.74353769865,-1.06235907669762,1731076.0,5172.0,4.2,1218.0
NTC,stbks,新莊門市,新北市新莊區幸福路763-3號1F之1(新莊中和街與幸福路交叉口佳瑪賣場),新莊區中港里,121.447615,25.049057,73916.74353769865,-1.06235907669762,1731076.0,5172.0,4.2,1218.0
NTC,stbks,新莊思源門市,新北市新莊區思源路448號,新莊區頭前里,121.460218,25.05355,14427.621534263651,5.303485143996397,3899806.0,1493.0,4.3,1683.0
NTC,stbks,新莊新泰門市,新北市新莊區新泰路308號1-2樓,新莊區立德里,121.445452,25.041232,9314.219668186464,-1.3878777397977902,766227.0,,4.2,518.0
NTC,stbks,板民門市,新北市板橋區三民路二段23號(板橋三民路上家樂福旁),板橋區富貴里,121.4795095,25.01827772,38230.67572512558,-0.2412041159665386,886021.0,,3.7,356.0
NTC,stbks,遠百中山門市,新北市板橋區中山路一段152號2F,板橋區深丘里,121.464344,25.011113,26855.77525936883,-0.3044036028483651,4406637.0,4534.0,4.0,395.0
NTC,stbks,板中門市,新北市板橋區中山路一段15號1樓,板橋區鄉雲里,121.460123,25.008317,17696.501667899905,-0.7925183725913332,1259438.0,1797.0,4.0,1154.0
NTC,stbks,亞東門市,新北市板橋區南雅南路二段21號,板橋區華東里,121.452312,24.997312,15641.54307170118,1.1417444778987949,3539135.0,3384.0,4.1,277.0
NTC,stbks,亞東門市,新北市板橋區南雅南路二段21號(亞東捷運站3號出口亞東醫院旁),板橋區華東里,121.452312,24.997312,15641.54307170118,1.1417444778987949,3539135.0,3384.0,4.1,277.0
NTC,stbks,板橋忠孝門市,新北市板橋區忠孝路 31號,板橋區福星里,121.460717,25.002041,26686.498206553344,-1.4155087423090982,1189520.0,897.0,4.1,619.0
NTC,stbks,板橋忠孝門市,新北市板橋區忠孝路31號,板橋區福星里,121.460717,25.002041,26686.498206553344,-1.4155087423090982,1189520.0,897.0,4.1,619.0
NTC,stbks,板橋新埔門市,新北市板橋區文化路1段220號,板橋區百壽里,121.466682,25.020409,55798.06259922851,1.87905401621166,782302.0,2727.0,4.2,899.0
NTC,stbks,板橋新巨蛋門市,新北市板橋區文化路1段360號,板橋區華江里,121.468655,25.023422,65707.41713444446,0.0449309267860501,3015293.0,3500.0,4.1,558.0
NTC,stbks,板橋大遠百門市,新北市板橋區新站路28號2樓,板橋區福丘里,121.466627,25.013622,20359.21107721245,0.4416789044410674,3018264.0,2155.0,3.9,507.0
NTC,stbks,板大遠百9F門市,新北市板橋區新站路28號9樓,板橋區福丘里,121.466627,25.013622,20359.21107721245,0.4416789044410674,3018264.0,2155.0,2.8,10.0
NTC,stbks,板站1F門市,新北市板橋區縣民大道二段7號1F,板橋區福丘里,121.463635,25.01433,20359.21107721245,0.4416789044410674,3018264.0,2155.0,3.6,49.0
NTC,stbks,板橋捷運門市,新北市板橋區縣民大道二段7號B1,板橋區福丘里,121.463635,25.01433,20359.21107721245,0.4416789044410674,3018264.0,2155.0,3.8,9.0
NTC,stbks,板站捷運門市,新北市板橋區縣民大道二段7號B1 (捷運3A出口),板橋區福丘里,121.463635,25.01433,20359.21107721245,0.4416789044410674,3018264.0,2155.0,3.8,9.0
NTC,stbks,板橋車站門市,新北市板橋區縣民大道二段7號B1(近台鐵及高鐵入口處),板橋區福丘里,121.463635,25.01433,20359.21107721245,0.4416789044410674,3018264.0,2155.0,3.7,356.0
NTC,stbks,板橋萬板門市,新北市板橋區萬板路32號,板橋區埤墘里,121.472009,25.022316,68261.95267931012,0.1854214020774236,1314292.0,1018.0,4.3,536.0
NTC,stbks,板橋遠科門市,新北市板橋區遠東路1號,板橋區鄉雲里,121.456596,24.998722,17696.501667899905,-0.7925183725913332,1259438.0,1797.0,4.0,395.0
NTC,stbks,板雙門市,新北市板橋區雙十路二段193號,板橋區忠翠里,121.473578,25.028808,46026.76696458954,-0.2866012753461729,5111619.0,2090.0,4.2,1308.0
NTC,stbks,板雙門市,新北市板橋區雙十路二段193號(江子翠捷運站4號出口斜對面),板橋區忠翠里,121.473578,25.028808,46026.76696458954,-0.2866012753461729,5111619.0,2090.0,4.2,1308.0
NTC,stbks,MITSUI門市,新北市林口區文化三路一段356號,林口區南勢里,121.363547,25.071241,6952.096520265434,10.359882106826465,10578817.0,1832.0,4.2,809.0
NTC,stbks,林口文化三門市,新北市林口區文化三路一段359 號,林口區南勢里,121.364907,25.072814,6952.096520265434,10.359882106826465,10578817.0,1832.0,4.4,1442.0
NTC,stbks,林口文化三門市,新北市林口區文化三路一段359號,林口區南勢里,121.364907,25.072814,6952.096520265434,10.359882106826465,10578817.0,1832.0,4.4,1442.0
NTC,stbks,文化門市,新北市林口區文化二路一段551號,林口區湖南里,121.374582,25.07723,9650.28327288775,6.065477644605174,9703793.0,1473.0,4.2,820.0
NTC,stbks,文化門市,新北市林口區文化二路一段551號(家樂福隔壁),林口區湖南里,121.374582,25.07723,9650.28327288775,6.065477644605174,9703793.0,1473.0,4.2,820.0
NTC,stbks,樹林中山門市,新北市樹林區中山路一段157號,樹林區育英里,121.42196,24.988814,33829.95945620488,0.8308329232787534,849637.0,1439.0,4.3,1010.0
NTC,stbks,樹林中山,新北市樹林區中山路一段157號 (近立人街口),樹林區育英里,121.42196,24.988814,33829.95945620488,0.8308329232787534,849637.0,1439.0,4.3,1010.0
NTC,stbks,學勤北大門市,新北市樹林區大雅路288號,樹林區南園里,121.379874,24.9476,11953.40277732665,0.8386823450147851,5934044.0,1777.0,4.1,823.0
NTC,stbks,學勤北大門市,新北市樹林區家樂福北大店大雅路288號,樹林區南園里,121.3799099,24.94766712,11953.40277732665,0.8386823450147851,5934044.0,1777.0,4.1,823.0
NTC,stbks,樹林秀泰門市,新北市樹林區樹新路40-6號1F,樹林區保安里,121.427952,24.995486,27341.55072938636,-1.7802321311035207,1554782.0,,4.2,266.0
NTC,stbks,雙和門市,新北市永和區中山路一段240號1樓,永和區保安里,121.507046,25.007344,29497.069212002167,-1.52682080446076,3040572.0,2964.0,4.0,488.0
NTC,stbks,永和中正門市,新北市永和區中正路312號,永和區潭安里,121.517489,24.999402,62466.139924929405,-1.3345918967678858,1550098.0,1650.0,4.1,400.0
NTC,stbks,永和永安門市,新北市永和區安樂路248-7號1F,永和區潭墘里,121.514695,25.003632,41802.44697512799,-0.5818953780766023,1712007.0,900.0,4.1,799.0
NTC,stbks,永和愛買門市,新北市永和區民生路46巷50號,永和區民權里,121.521027,24.99649,41773.26284061432,-0.5892859300023368,1581626.0,,4.0,421.0
NTC,stbks,永和頂溪門市,新北市永和區永和路二段181號,永和區後溪里,121.515258,25.013342,46339.43117410188,0.5256119892136961,717508.0,9696.0,4.0,803.0
NTC,stbks,竹林門市,新北市永和區竹林路222-1號,永和區光明里,121.520739,25.007905,45866.6588930071,-1.786476755974083,1082010.0,2059.0,3.9,472.0
NTC,stbks,汐止大同門市,新北市汐止區大同路2段500號,汐止區信望里,121.660724,25.06809,9501.19024249604,0.2024191196260479,84808.0,,4.3,853.0
NTC,stbks,東科門市,新北市汐止區新台五路一段94號1樓,汐止區文化里,121.648416,25.060718,9609.839146791786,2.5110791039398466,1450740.0,1018.0,4.1,209.0
NTC,stbks,汐科門市,新北市汐止區新台五路一段99號,汐止區復興里,121.648248,25.06162,39070.83765716913,0.2423895026010628,3108012.0,1960.0,4.2,399.0
NTC,stbks,汐止湖前門市,新北市汐止區湖前街78 & 80號,汐止區金龍里,121.630707,25.07146,28700.43586884981,1.7294354208240066,1425322.0,1635.0,4.2,648.0
NTC,stbks,汐止湖前門市,新北市汐止區湖前街78&80號,汐止區金龍里,121.630707,25.07146,28700.43586884981,1.7294354208240066,1425322.0,1635.0,4.2,648.0
NTC,stbks,泰山明志門市,新北市泰山區明志路2段123號,泰山區義學里,121.427984,25.051366,12545.24233890748,0.3407377230496481,1137719.0,,4.2,637.0
NTC,stbks,淡海門市,新北市淡水區中山北路二段183號1樓,淡水區崁頂里,121.444039,25.185054,5179.330969260427,12.4154763814305,5025469.0,1392.0,4.2,808.0
NTC,stbks,紅樹林門市,新北市淡水區中正東路二段68號,淡水區八勢里,121.45901,25.154489,2226.486486667385,5.087045976665502,3122035.0,2340.0,4.3,249.0
NTC,stbks,河岸門市,新北市淡水區中正路205號,淡水區新生里,121.437552,25.171858,1465.7871015609414,-3.0231147220162846,111731.0,1851.0,4.3,3043.0
NTC,stbks,淡水雲門門市,新北市淡水區中正路一段6巷32-1號,淡水區油車里,121.428169,25.180764,3711.317551428043,0.015008731579306,1371549.0,,4.3,1427.0
NTC,stbks,淡水門市,新北市淡水區公明街89號1樓,淡水區草東里,121.444125,25.168296,2307.7749592402097,-2.394010944874392,216026.0,4481.0,3.9,911.0
NTC,stbks,竹圍門市,新北市淡水區民權路42號,淡水區竹圍里,121.459822,25.137142,26291.076671435967,-0.1447941663119086,2106064.0,898.0,4.1,402.0
NTC,stbks,漁人碼頭門市,新北市淡水區觀海路91號,淡水區沙崙里,121.413987,25.18243,1730.7086044846344,2.4170121414944123,1051990.0,811.0,4.2,1088.0
NTC,stbks,蘆洲三民門市,新北市蘆洲區三民路120號,蘆洲區仁愛里,121.471328,25.087339,66639.4395074807,-0.3656659418526035,1216258.0,1744.0,4.2,797.0
NTC,stbks,蘆洲長榮門市,新北市蘆洲區長榮路418號1樓,蘆洲區正義里,121.459682,25.088183,23458.84770713887,2.2529647208720123,5147118.0,1911.0,4.2,1097.0
NTC,stbks,鶯歌門市,新北市鶯歌區育英街67號,鶯歌區同慶里,121.347351,24.952176,7244.294441792545,-2.191235879271221,385333.0,2113.0,4.4,1441.0
TPE,85 cafe,台北吉林店,台北市中山區吉林路201號,中山區中庄里,121.53036,25.059988,34199.34850344049,-1.879026538898243,1857272.0,2506.0,3.6,288.0
TPE,85 cafe,台北長安東店,台北市中山區長安東路二段173號,中山區朱崙里,121.542232,25.048414,23137.60128868763,0.447031917993194,1401459.0,2266.0,3.8,223.0
TPE,85 cafe,台北榮星店,台北市中山區龍江路358號1樓,中山區行仁里,121.540889,25.066106,40912.81071875895,-1.970480633371973,2544143.0,1613.0,3.6,319.0
TPE,85 cafe,台北錦州店,台北市中山區錦州街28-8號,中山區聚盛里,121.5247,25.060237,34908.6678348258,-0.6871739024225665,1584544.0,3521.0,3.7,413.0
TPE,85 cafe,台北汀州店,台北市中正區同安街57號,中正區頂東里,121.521837,25.02417,49837.69268056392,-1.2858018819649577,2652823.0,2666.0,3.6,338.0
TPE,85 cafe,台北中華店,台北市中正區中華路二段319號,中正區忠勤里,121.506272,25.02783,62174.18432460938,-2.379050877768944,1326452.0,3336.0,4.0,31.0
TPE,85 cafe,台北莊敬店,台北市信義區莊敬路416號,信義區三張里,121.566246,25.027144,30014.71087611474,-1.33597831846215,4064796.0,2673.0,3.7,296.0
TPE,85 cafe,台北永吉店,台北市信義區永吉路269號,信義區五常里,121.575382,25.04567,43534.05821361164,-2.338026096054202,1336177.0,2938.0,3.7,359.0
TPE,85 cafe,東湖康樂店,台北市內湖區康樂街72巷2號1F,內湖區東湖里,121.618481,25.069395,51392.55385609748,-0.7371580017256463,2532485.0,1805.0,3.8,264.0
TPE,85 cafe,內湖文德店,台北市內湖區文德路2號1樓,內湖區港富里,121.578863,25.078458,26749.913214832457,-1.0082892651901432,3952913.0,2698.0,3.3,293.0
TPE,85 cafe,關渡知行店,台北市北投區知行路299號,北投區關渡里,121.467236,25.122053,6855.853133949717,-0.9297796668640352,3854213.0,,3.7,122.0
TPE,85 cafe,北投育仁店,台北市北投區中央北路一段98號,北投區大同里,121.499692,25.134796,8830.866087816092,-2.87752031187809,2169240.0,2378.0,3.7,273.0
TPE,85 cafe,北投中和店,台北市北投區中和街335號,北投區中庸里,121.499517,25.141082,41448.33547998395,-1.8882704990340395,1240561.0,1418.0,3.6,250.0
TPE,85 cafe,台北中研店,台北市南港區研究院路一段110號,南港區新富里,121.615939,25.052032,22287.04804524885,-2.337074519703168,1321008.0,2550.0,3.7,251.0
TPE,85 cafe,台北同德店,台北市南港區同德路26號,南港區萬福里,121.584019,25.045076,40510.236810007176,-1.5706579682657502,1760559.0,2053.0,3.7,210.0
TPE,85 cafe,士林劍潭店,台北市士林區承德路四段31號,士林區明勝里,121.522577,25.080582,17216.89007047223,-1.8679482731147907,1745423.0,3359.0,3.5,309.0
TPE,85 cafe,天母德行店,台北市士林區德行東路241號,士林區聖山里,121.534025,25.109794,47192.91085305884,-1.249434534712416,2416204.0,2518.0,3.7,268.0
TPE,85 cafe,士林基河,台北市士林區基河路133號,士林區仁勇里,121.523732,25.088508,31935.038004579543,-2.2569285235763585,1266108.0,3269.0,4.3,50.0
TPE,85 cafe,台北和平東店,台北市大安區和平東路三段342號,信義區黎忠里,121.557318,25.019601,35135.89458994619,-1.7953005739919388,1624286.0,2181.0,3.8,401.0
TPE,85 cafe,信義通化店,台北市大安區通化街38巷19號,大安區通安里,121.553453,25.030987,45862.811009044686,-2.121355125270963,2358251.0,3496.0,5.0,63.0
TPE,85 cafe,科技大樓店,台北市大安區和平東路二段98號,大安區龍淵里,121.541439,25.02494,58623.91922778076,-0.5701345177185531,4839859.0,1767.0,4.0,71.0
TPE,85 cafe,文山興隆店,台北市文山區興隆路四段68-6號,文山區樟林里,121.56153,24.984569,35917.60898637819,-1.6935134402621326,3254723.0,,4.2,138.0
TPE,85 cafe,台北景美店,台北市文山區景文街42號1樓,文山區景行里,121.54123,24.991716,48777.88869162513,1.352716178052423,3001156.0,2082.0,3.6,711.0
TPE,85 cafe,台北光復北店,台北市松山區光復北路167號,松山區介壽里,121.555554,25.057383,32891.66914563871,-1.073180848594513,2407651.0,5312.0,3.5,407.0
TPE,85 cafe,台北京華店,台北市松山區八德路四段202號1樓,松山區復盛里,121.564029,25.048701,40022.90886578901,-2.252715368394872,2436851.0,2192.0,3.6,170.0
TPE,85 cafe,台北西門店,台北市萬華區漢中街151號,萬華區新起里,121.50722,25.041623,53491.55855566798,0.5329850908669591,2414176.0,2722.0,3.9,843.0
TPE,85 cafe,萬華廣州店,台北市萬華區廣州街150號,萬華區富民里,121.500542,25.036573,42950.10321535566,-1.4351759713883658,1189988.0,2369.0,3.1,311.0
TPE,85 cafe,台北寶興店,台北市萬華區寶興街92號,萬華區錦德里,121.494314,25.025874,37660.707889117664,-1.6309783816704857,1365870.0,820.0,3.8,227.0
NTC,85 cafe,三峽文化店,新北市三峽區文化路152號,三峽區永舘里,121.37041,24.936274,22199.02871127091,-1.1547936202923823,1754063.0,1750.0,3.6,435.0
NTC,85 cafe,三峽中華店,新北市三峽區中華路46號,三峽區安溪里,121.372052,24.930548,19206.69350784696,-0.7173385375447723,1643439.0,1042.0,3.8,176.0
NTC,85 cafe,三峽復興店,新北市三峽區復興路369號,三峽區鳶山里,121.363519,24.938502,2184.3630028759185,-0.2187451610530318,2360907.0,1183.0,3.7,121.0
NTC,85 cafe,三芝中正店,新北市三芝區中正路一段50號,三芝區埔坪里,121.503593,25.258177,1944.9393544215293,-0.5439884525957634,1120952.0,,4.1,53.0
NTC,85 cafe,三重群光店,新北市三重區光復路二段69號2樓,三重區頂崁里,121.47225,25.056943,3818.683607954228,4.4276346077881,639546.0,,0.0,0.0
NTC,85 cafe,三重集美店,新北市三重區重新路4段104號,三重區光明里,121.487647,25.056992,30398.232620178205,-0.7068675359999037,2289865.0,1275.0,3.5,456.0
NTC,85 cafe,三重中華店,新北市三重區中華路73號,三重區田安里,121.483607,25.062549,50895.26533419877,-0.5783438225589983,1552548.0,1603.0,3.8,254.0
NTC,85 cafe,三重重新店,新北市三重區重新路一段100號,三重區永興里,121.501296,25.063329,45700.290734228,2.716149528093241,355191.0,2901.0,3.5,318.0
NTC,85 cafe,三重中正店,新北市三重區中正北路344號,三重區田中里,121.478104,25.069219,59049.29283163271,-0.3930734518273156,1575790.0,1338.0,3.7,355.0
NTC,85 cafe,三重重陽店,新北市三重區重陽路3段126號,三重區幸福里,121.488876,25.06662,23100.297415718367,-0.6304434593808732,1083503.0,1762.0,3.8,498.0
NTC,85 cafe,三重仁愛店,新北市三重區分子尾街45號1樓,三重區慈祐里,121.489301,25.082194,56026.28992522612,1.845470866903239,1072246.0,1866.0,3.8,301.0
NTC,85 cafe,三重自強店,新北市三重區大智街49號,三重區厚德里,121.492836,25.067598,59403.94066575651,-1.560431252891655,951431.0,892.0,3.5,259.0
NTC,85 cafe,三重三和店,新北市三重區三和路四段272號,三重區永盛里,121.485437,25.07719,40711.9777029636,-1.911593709281008,618275.0,1442.0,3.3,114.0
NTC,85 cafe,中和圓通店,新北市中和區中正路226號,中和區正行里,121.496291,24.994039,41909.90765441538,-0.8787824301424477,944651.0,,3.3,341.0
NTC,85 cafe,中和宜安店,新北市中和區宜安路65號,中和區安和里,121.511225,24.997098,40334.384479605695,-0.3062968784310745,1102906.0,2666.0,3.5,160.0
NTC,85 cafe,中和員山店,新北市中和區員山路220號,中和區安穗里,121.481388,25.000983,63061.58168491836,-0.3558979694451292,1230876.0,,3.6,433.0
NTC,85 cafe,中和興南店,新北市中和區興南路二段47號,中和區正南里,121.507435,24.985527,56679.4751890724,-1.8813519885258,696979.0,1388.0,3.4,16.0
NTC,85 cafe,板橋民德店,新北市中和區民德路1號,中和區國光里,121.46894,25.003429,63685.95524483914,-1.2682211502192953,1052430.0,3034.0,3.8,99.0
NTC,85 cafe,五股成泰店,新北市五股區成泰路二段156號1樓,五股區五股里,121.438344,25.084031,9590.312807035709,-1.033901992960636,872596.0,,3.7,418.0
NTC,85 cafe,五股成洲店,新北市五股區成泰路三段437號1樓,五股區成州里,121.44991,25.097861,4529.445234845352,0.6142420968795765,1133320.0,1137.0,4.7,21.0
NTC,85 cafe,台北八里店,新北市八里區中山路二段538號,八里區訊塘里,121.397485,25.146581,2446.770111215017,1.1983764399991603,923898.0,840.0,3.8,247.0
NTC,85 cafe,土城中央店,新北市土城區中央路二段386號,土城區員仁里,121.439719,24.971216,14896.289689407546,-0.6890153692323449,1162240.0,906.0,3.7,285.0
NTC,85 cafe,土城延和店,新北市土城區延和路217號,土城區延祿里,121.46999,24.989726,75217.85189010217,-0.6246013328170246,848320.0,777.0,3.9,296.0
NTC,85 cafe,土城裕民店,新北市土城區裕生路1號1樓,土城區裕生里,121.448629,24.987897,16523.82139895702,-0.8579181454629511,1408041.0,,3.8,663.0
NTC,85 cafe,新店中正店,新北市新店區中正路2號,新店區張北里,121.545795,24.96946,39097.13040958381,0.4245257629399053,3725308.0,1969.0,3.6,615.0
NTC,85 cafe,新店安康店,新北市新店區安德街173號（安康路口）,新店區安昌里,121.508708,24.959008,62954.9478654338,0.1250941337867258,1734920.0,,3.7,363.0
NTC,85 cafe,新店碧潭店,新北市新店區北宜路1段9號,新店區廣明里,121.538472,24.958817,6005.258800191632,0.0861854005898147,279043.0,966.0,3.3,96.0
NTC,85 cafe,新店安和店,新北市新店區安和路2段207號,新店區安和里,121.517697,24.975292,4898.628229709613,1.1525516160181346,2317117.0,1106.0,3.7,306.0
NTC,85 cafe,新店三民店,新北市新店區三民路187號,新店區福德里,121.535174,24.975472,46850.85894449206,-1.418933236728733,1206321.0,,3.7,153.0
NTC,85 cafe,幸福中港店,新北市新莊區幸福路602號之1,新莊區中港里,121.452117,25.049316,73916.74353769865,-1.06235907669762,1731076.0,5172.0,3.8,139.0
NTC,85 cafe,新莊龍安店,新北市新莊區八德街151號,新莊區成德里,121.423592,25.019687,44876.5754122542,-0.1729247481620177,1072542.0,1820.0,3.7,338.0
NTC,85 cafe,新莊富國店,新北市新莊區裕民街2號,新莊區裕民里,121.419313,25.026094,40202.33146993629,-0.9088542203241624,1497467.0,1430.0,3.5,215.0
NTC,85 cafe,新莊幸福店,新北市新莊區福壽街76號,新莊區信義里,121.458316,25.049668,47600.08403162613,-1.2823439200913,1305036.0,2938.0,3.5,704.0
NTC,85 cafe,新莊建安店,新北市新莊區建安街103號,新莊區建安里,121.426587,25.024269,19211.00124072565,-0.3228658745415261,1778036.0,2068.0,4.1,235.0
NTC,85 cafe,新莊昌平店,新北市新莊區昌平街57號,新莊區昌隆里,121.45468,25.053056,87887.90126410965,-0.7962648868458988,1328325.0,1500.0,3.8,259.0
NTC,85 cafe,新莊民安店,新北市新莊區民安西路86號,新莊區民安里,121.427,25.019431,73292.38495666705,-0.8791725539946782,1504282.0,,3.7,128.0
NTC,85 cafe,新莊中平店,新北市新莊區中平路84號,新莊區立基里,121.44488,25.044992,39429.491086003545,-1.075889291183696,2010891.0,1288.0,3.6,322.0
NTC,85 cafe,板橋四川店,新北市板橋區四川路一段166號,板橋區鄉雲里,121.459881,25.003181,17696.501667899905,-0.7925183725913332,1259438.0,1797.0,3.4,269.0
NTC,85 cafe,板橋大仁店,新北市板橋區大仁街16號,板橋區香雅里,121.455789,25.01704,16459.04143874809,2.495186628648849,607161.0,1454.0,3.9,248.0
NTC,85 cafe,板橋四維店,新北市板橋區四維路126號1F,板橋區明翠里,121.465372,25.025078,47262.02517530741,-0.7663260572430868,1144817.0,1843.0,3.7,300.0
NTC,85 cafe,板橋重慶店,新北市板橋區重慶路218號,板橋區大豐里,121.462611,25.002084,49747.91553923453,-0.6366447692355948,1207911.0,1505.0,3.5,175.0
NTC,85 cafe,板橋大同店,新北市板橋區雙十路二段10號1樓,板橋區龍翠里,121.476609,25.02672,50453.47645118008,-1.1511281780486846,1720551.0,500.0,3.8,339.0
NTC,85 cafe,板橋中山店,新北市板橋區中山路一段266號1樓,板橋區長安里,121.471835,25.014676,43958.14437349226,-0.855471869107971,1375222.0,2692.0,3.5,279.0
NTC,85 cafe,板橋南雅店,新北市板橋區新興路2號,板橋區新興里,121.456374,25.007276,35501.96993565431,-0.4548831352388482,763371.0,2425.0,3.6,144.0
NTC,85 cafe,板橋國光店,新北市板橋區國光路189號,板橋區國光里,121.461117,25.01855,81369.99075621061,-0.8909628226986044,1329230.0,,3.8,399.0
NTC,85 cafe,板橋莒光店,新北市板橋區莒光路64號,板橋區華翠里,121.471147,25.024114,41033.92300558368,-1.6248190145029244,1131333.0,1752.0,3.8,335.0
NTC,85 cafe,樹林金門店,新北市板橋區溪北路172號,板橋區堂春里,121.43097,24.987883,13050.626993231112,-1.0861131307189056,1075070.0,1170.0,3.8,252.0
NTC,85 cafe,板橋三民店,新北市板橋區三民路二段66號,板橋區九如里,121.479084,25.017337,41610.84078890314,-0.1667574905697281,659280.0,2535.0,3.8,76.0
NTC,85 cafe,林口竹林店,新北市林口區竹林路35號,林口區西林里,121.38685,25.077608,11292.66604172896,3.8018000853018505,3610018.0,1021.0,3.8,298.0
NTC,85 cafe,樹林中華店,新北市樹林區中華路68號,樹林區和平里,121.419966,24.981717,13195.273711059854,-1.1510535030939315,797279.0,997.0,3.6,569.0
NTC,85 cafe,樹林保安店,新北市樹林區復興路2號,樹林區樹西里,121.422825,24.995007,35662.72982181796,-0.8008798351136844,1579911.0,1130.0,3.9,338.0
NTC,85 cafe,樹林中山店,新北市樹林區中山路一段94號1F,樹林區樹西里,121.423167,24.991271,35662.72982181796,-0.8008798351136844,1579911.0,1130.0,3.5,436.0
NTC,85 cafe,永和保平店,新北市永和區保平路22號,永和區協和里,121.512387,25.007573,43770.11739089274,-0.7995811342336919,808549.0,2543.0,3.4,378.0
NTC,85 cafe,永和永貞店,新北市永和區永貞路240號1樓,永和區永安里,121.514705,25.003954,78098.97067519774,-0.6544722958422937,1651829.0,,3.5,276.0
NTC,85 cafe,永和頂溪店,新北市永和區永和路二段105號1F,永和區後溪里,121.514861,25.011873,46339.43117410188,0.5256119892136961,717508.0,9696.0,3.3,388.0
NTC,85 cafe,永和得和店,新北市永和區得和路320號,永和區民生里,121.523034,24.999469,71961.74115368673,-0.8550110071654071,1138235.0,1904.0,3.6,411.0
NTC,85 cafe,汐止中興店,新北市汐止區中興路141號1樓,汐止區中興里,121.63146,25.065594,22820.706541138326,0.8944388909259379,2273886.0,1688.0,3.8,252.0
NTC,85 cafe,汐止樟樹店,新北市汐止區樟樹一路121號,汐止區忠孝里,121.641977,25.064361,19265.874578346324,0.3658864289235453,2458129.0,2258.0,3.8,179.0
NTC,85 cafe,汐止建成店,新北市汐止區建成路37巷1號,汐止區城中里,121.663666,25.072748,37822.2558420052,0.4725791266646517,1531175.0,593.0,3.8,278.0
NTC,85 cafe,泰山明志店,新北市泰山區明志路一段519號,泰山區同榮里,121.430419,25.054047,3822.290306867728,-0.3292400118675154,1037954.0,,3.7,284.0
NTC,85 cafe,台北泰山店,新北市泰山區明志路三段165號,泰山區貴賢里,121.424666,25.039437,10879.305188384962,-0.5768565724947254,1209701.0,,3.7,165.0
NTC,85 cafe,竹圍民權店,新北市淡水區民權路135號1樓,淡水區民權里,121.460235,25.136519,21860.100339659555,1.915812579613308,1565601.0,,3.7,267.0
NTC,85 cafe,淡水中山店,新北市淡水區中山北路一段149巷15號,淡水區新義里,121.442849,25.1776,31200.839681418413,-1.180761575489194,883952.0,,3.7,338.0
NTC,85 cafe,瑞芳明燈店,新北市瑞芳區明燈路三段35號,瑞芳區龍興里,121.807171,25.1078,21939.680211871764,-1.1708266398485248,494705.0,1042.0,3.7,219.0
NTC,85 cafe,萬里野柳店,新北市萬里區港東路65-1號,萬里區野柳里,121.6878524,25.20403389,620.7052923990904,-1.2777847697768685,460753.0,,3.9,414.0
NTC,85 cafe,蘆洲復興店,新北市蘆洲區復興路21號,蘆洲區福安里,121.4756607,25.08733535,52188.16515669743,-0.6860373331740128,761042.0,1527.0,3.4,443.0
NTC,85 cafe,蘆洲長安店,新北市蘆洲區長安街225號1樓,蘆洲區永德里,121.459412,25.082557,60483.6509677644,-0.5148611663310376,975373.0,2000.0,3.8,136.0
NTC,85 cafe,蘆洲光華店,新北市蘆洲區光華路174號,蘆洲區中路里,121.465159,25.082182,33846.82343084589,-0.4483317513652866,904809.0,,3.5,252.0
NTC,85 cafe,蘆洲民族店,新北市蘆洲區民族路321號,蘆洲區水河里,121.474329,25.091487,15354.918545204911,-0.2711948877611428,2131815.0,,3.9,208.0
NTC,85 cafe,金山中山店,新北市金山區中山路106號,金山區和平里,121.63993,25.219346,4921.167929519388,-2.656621732529333,77812.0,,3.8,232.0
NTC,85 cafe,鶯歌鶯桃店,新北市鶯歌區鶯桃路656號,鶯歌區鳳鳴里,121.329193,24.969223,6298.055230207374,7.973902382514749,991876.0,1122.0,3.9,432.0
NTC,85 cafe,鶯歌國慶店,新北市鶯歌區建國路154號,鶯歌區南鶯里,121.350845,24.953844,31200.762124965782,-0.958449313074361,1401298.0,834.0,3.7,255.0
NTC,small,蜂巢咖啡,新北市永和區永貞路214號,永和區永安里,121.5152865,25.0040968,78098.97067519774,-0.6544722958422937,1651829.0,,4.3,85.0
TPE,small,The Kaffa Lovers,台北市中正區金山北路3號,中正區梅花里,121.5304559,25.044354,6926.62825598684,-1.1404555520498685,1922928.0,4709.0,4.4,126.0
TPE,small,一杯咖啡士林店,台北市士林區中山北路五段505巷36號,士林區福林里,121.5266778,25.0930205,1433.364351090113,-2.379690432351496,1359341.0,3875.0,4.6,159.0
TPE,small,Full of Beans 充滿豆豆咖啡館,台北市中山區龍江路21巷9-6號,中山區朱崙里,121.5411381,25.047838,23137.60128868763,0.447031917993194,1401459.0,2266.0,4.7,139.0
TPE,small,良食究好市集餐廳WONMI,台北市八德路四段138號 (京華城 Living Mall 10 F) ,松山區復盛里,121.5623004,25.0483545,40022.90886578901,-2.252715368394872,2436851.0,2192.0,4.7,31.0
NTC,small,8號咖啡屋,新北市土城區中央路2段278巷,土城區員仁里,121.4403068,24.9746599,14896.289689407546,-0.6890153692323449,1162240.0,906.0,4.4,108.0
NTC,small,馬崗街27號咖啡小館,228新北市貢寮區馬崗街27號,貢寮區福連里,122.003318,25.0128963,89.00298713985424,-0.8132456169774057,103864.0,,4.4,586.0
TPE,small,Olivia Coffee Roaster,106  Taipei City  Da’an District  光復南路346巷50號台灣,大安區正聲里,121.5559712,25.0385194,44492.702678856185,-2.1408298717292773,3665399.0,3222.0,4.4,208.0
TPE,small,Caffe Ruelle 巷子壹,台北市士林區至誠路二段31之1號,士林區名山里,121.5292749,25.1017758,18340.980122306664,-1.0936914781531768,3221059.0,1632.0,4.4,425.0
TPE,small,DEBORAH CAFE 黛博拉咖啡,台北市中山區敬業一路168號,中山區成功里,121.5533577,25.0838423,10693.122623534107,-1.1796330089498022,5679811.0,3145.0,4.3,205.0
TPE,small,山徑拾光 TRAIL COFFEE,106台北市大安區溫州街48巷4號,大安區大學里,121.53283,25.0214088,45612.20539650289,-0.2215433181810648,4643860.0,1541.0,4.9,68.0
TPE,small,瑞帛咖啡Rebirth Coffee,台北市中山區民生東路二段115巷25弄20號,中山區中庄里,121.5321395,25.0592232,34199.34850344049,-1.879026538898243,1857272.0,2506.0,4.5,359.0
TPE,small,啡創工廠 Future Factory,台北市大同區民族西路31巷18號,大同區至聖里,121.519598,25.069167,34161.35139064609,-1.824902108387624,2667975.0,1168.0,4.5,339.0
NTC,small,MISS.CAFE覓食點咖啡,241新北市三重區三和路三段26號,三重區三安里,121.4964912,25.0703946,48561.6439941783,-0.3031749105625684,587370.0,1902.0,4.6,179.0
NTC,small,艸地掛,新北市汐止區建成路178巷6號1樓,汐止區建成里,121.6610147,25.0740458,24703.69994051382,-0.2251314405370112,1822411.0,1084.0,4.7,75.0
TPE,small,June Cafe 六月咖啡,台灣台北市中山區中山北路二段62巷24號,中山區民安里,121.521385,25.056659,19806.234806991262,-1.4481974642719977,1982235.0,3818.0,4.6,108.0
TPE,small,Mase Cafe 咖啡專門店,台北市八德路二段300巷38號,中山區埤頭里,121.5423724,25.0461232,18172.88568629984,-2.5247991176081896,1403888.0,3744.0,4.9,207.0
TPE,small,Irga 就此耶加烘豆坊（自家烘焙咖啡）,台北市大安區麗水街7巷8號,大安區永康里,121.529278,25.0308639,31997.07455318371,-0.3879108995447892,2133014.0,5057.0,4.9,256.0
NTC,small,歐豆麥,新北市金山區仁愛路3號,金山區金美里,121.6378593,25.2194626,12524.610234776126,-0.580437904789477,900865.0,,4.8,218.0
TPE,small,小小蔬房,台北市漢口街二段125號,萬華區福星里,121.5040002,25.0464845,23216.4529628721,-1.624845983796212,1612439.0,5438.0,4.5,106.0
TPE,small,青鳥,青鳥Bleu&Book 100台北市中山區八德路一段1號 02 2341 8865 https://goo.gl/maps/gd41pJ3XnGH2,中正區梅花里,121.5293264,25.0443318,6926.62825598684,-1.1404555520498685,1922928.0,4709.0,4.3,376.0
NTC,small,邦客思精品咖啡,新北市新店區中興路二段51號,新店區張北里,121.5462711,24.9702523,39097.13040958381,0.4245257629399053,3725308.0,1969.0,4.9,52.0
TPE,small,八豆咖啡 BarDoor Coffee,台北市中山區撫順街2之3號1樓,中山區集英里,121.52199,25.0637249,20744.09637439897,-0.5990158578695226,2900878.0,2581.0,4.5,208.0
TPE,small,卡塔摩納 台北營業所,10646台北市大安區浦城街24-1號,大安區古莊里,121.5267001,25.0230369,34230.50324792905,0.8295320928445982,3769138.0,3146.0,4.8,12.0
TPE,small,UNI CAFE,台北市中正區金門街15號,中正區河堤里,121.5232314,25.0214991,28789.191769954883,-1.6970278089979047,2044258.0,1216.0,4.7,227.0
TPE,small,Pure Caf'e,台北市中山區北安路595巷19弄2號,中山區大直里,121.5475701,25.0824206,14193.57851356997,-1.957954611540528,3928563.0,1721.0,4.7,22.0
NTC,small,不如咖啡BLUBLU Kafe,新北市三重區集英路126號,三重區碧華里,121.4849328,25.0873949,29828.396626840244,2.601318275916824,3555307.0,1046.0,4.1,585.0
TPE,small,仙德曼咖啡.Sadomain cafe,台北市中正區新生南路一段14-1號,中正區梅花里,121.53256,25.043444,6926.62825598684,-1.1404555520498685,1922928.0,4709.0,4.5,93.0
TPE,small,安提.司朵,台北市內湖區成功路五段402號,內湖區金湖里,121.6074954,25.0761446,12847.158715896674,-0.7300624485139906,7588398.0,2212.0,4.6,44.0
NTC,small,窩心房Sweet-Art Coffee,新北市新莊區昌平街59巷9號1 樓,新莊區昌隆里,121.4541062,25.0530229,87887.90126410965,-0.7962648868458988,1328325.0,1500.0,4.7,276.0
TPE,small,TRIBU CAFE (森優咖啡）,110台北市信義區崇德街74號,信義區黎平里,121.55474,25.024141,55496.40184606466,-1.5671284000977022,2703422.0,2975.0,4.6,105.0
TPE,small,真的咖啡 Zhen De Coffee,台北市文山區萬隆街19巷1號,文山區萬隆里,121.5383447,25.0001025,59693.131294214894,-1.047538955886059,3037729.0,1521.0,4.3,378.0
TPE,small,男朋友•家,台北市中山區建國北路二段64巷15號,中山區中央里,121.5356312,25.0544659,14986.753326120555,-1.4515914528251774,1610149.0,3224.0,4.3,320.0
TPE,small,Cafe Fundoor 咖啡方桌,台北市大安區大安路二段55號,大安區住安里,121.5462302,25.0311982,37166.86616201101,-2.460769920344659,2335518.0,3220.0,4.5,159.0
TPE,small,WeiCoffee.,台北市中山區四平街89號,中山區中央里,121.5350603,25.0537338,14986.753326120555,-1.4515914528251774,1610149.0,3224.0,4.8,59.0
NTC,small,牧童咖啡 mutto coffee(福德店),新北市汐止區福德一路106巷9號,汐止區康福里,121.6389371,25.0696779,40563.4961789496,0.5546745434342231,1798809.0,1274.0,4.3,581.0
TPE,small,BRICK WORKS TAIPEI (花博店),台北市中山區玉門街1號(MAJI市場廣場S17專櫃),中山區圓山里,121.5217297,25.0696537,6815.778207816072,-1.1247869385799212,1550998.0,1772.0,3.6,184.0
TPE,small,Amandier cafe 雅蒙蒂創意飲食 新生店,台北市中山區新生北路一段66號,中山區正守里,121.5302826,25.0470363,28945.71672500701,0.0185107667203846,1491526.0,2391.0,4.0,128.0
NTC,small,麥兜咖啡,新北市蘆洲區中原路1-3號,蘆洲區長安里,121.4587657,25.0820189,57931.151621032346,-0.0078546350803954,913180.0,1280.0,4.3,207.0
TPE,small,湛盧咖啡(忠孝店),台北市大安區忠孝東路四段50號2F,大安區仁愛里,121.5449043,25.0414164,24419.36184067723,-1.9434139324837687,4153950.0,4279.0,4.3,801.0
TPE,small,A8 Café & Gallery,台北市大安區和平東路三段67巷8號,大安區全安里,121.5494198,25.0249831,33432.977314011354,-1.221863022742934,2823065.0,4045.0,3.4,84.0
NTC,small,豆BAR,新北市中和區南華路27號,中和區南山里,121.5031926,24.9961312,65020.11925512528,-1.122132699122247,2049374.0,2083.0,4.6,259.0
TPE,small,The Misanthrope Society 厭世會社,台北市中正區羅斯福路四段40巷1-2號一樓,中正區水源里,121.533287,25.015118,7938.931950934741,-0.4441672418021181,1177893.0,4688.0,4.6,549.0
TPE,small,未央咖啡店,台北市大安區四維路208巷10號,大安區群賢里,121.547415,25.026258,40099.32584185052,-1.4901884547768418,3164367.0,4269.0,4.1,1522.0
TPE,small,果實咖啡堂,10491台北市中山區雙城街17巷7號,中山區恆安里,121.5250633,25.0645582,38794.34495285343,0.0757945193323431,2117078.0,2943.0,3.9,121.0
TPE,small,黑金魚咖啡館,台北市北投區育仁路8巷3號,北投區大同里,121.4987251,25.1327138,8830.866087816092,-2.87752031187809,2169240.0,2378.0,4.5,389.0
TPE,small,二會 gojiby,台北市中山區華陰街21號2樓,大同區建明里,121.5200044,25.0492813,21679.756337171104,-2.6617841592189606,1336075.0,2040.0,4.5,318.0
NTC,small,老派的約會,新北市新店區北新路二段40號,新店區張北里,121.543026,24.9716916,39097.13040958381,0.4245257629399053,3725308.0,1969.0,4.4,1094.0
TPE,small,草泥cafe,台北市大安區106台北市大安區樂業街17號,大安區虎嘯里,121.550105,25.023824,26169.627795738656,-1.6230082674922208,2281243.0,2872.0,4.2,625.0
TPE,small,hao's repair,台北市松山區南京東路四段189號1樓,松山區東勢里,121.5566881,25.0517922,48624.10399842985,-1.321430623645329,2174535.0,3816.0,5.0,42.0
TPE,small,Coffee Sind,台北市中正區新生南路一段56巷8號,中正區幸市里,121.532195,25.041092,26122.24180970343,-2.3789097471844656,2834326.0,4967.0,4.8,518.0
TPE,small,Coffee Buff,台北市中山區大直街62巷8號,中山區大直里,121.545876,25.082814,14193.57851356997,-1.957954611540528,3928563.0,1721.0,4.0,19.0
NTC,small,Black Cafe 黑咖啡,234新北市永和區大新街18號,永和區大新里,121.5150809,25.0084411,56101.20793709026,-0.5094614821941956,949779.0,1413.0,4.7,277.0
NTC,small,威尼斯現烘咖啡,新北市板橋區互助街5號,板橋區新翠里,121.4631649,25.0276516,66271.48898991571,0.9095512498479508,2536992.0,1296.0,4.9,149.0
TPE,small,Sunday Morning 星期天早上,台北市大安區樂業街70號,大安區芳和里,121.5505806,25.022068,20811.76752277653,-0.4894356263086615,2229349.0,2201.0,4.7,283.0
TPE,small,Strange Brew Coffe Roster 怪咖啡自家烘焙,台北市安居街108巷20號1樓,大安區黎元里,121.5517394,25.019182,18892.74889768496,-0.9389101788982224,1605035.0,2000.0,4.8,85.0
TPE,small,Joco Latte,台北市民生東路三段88巷4號,中山區龍洲里,121.5425399,25.0574638,70650.64035430548,-1.10069074675474,2228394.0,1842.0,3.9,307.0
TPE,small,溫古咖啡Wengu cafe ,106台北市大安區敦化南路一段160巷16號,大安區光武里,121.5477706,25.0434449,37131.21454223301,-1.4931504734489267,3643217.0,5203.0,4.4,635.0
NTC,small,LIN CAFE 木木珈琲,新北市三重區文化北路10-3號（導航搜尋大榮街53號，我們就在對面）,三重區文化里,121.499147,25.063771,33207.231039787286,-2.821457146245236,568666.0,2303.0,4.5,128.0
NTC,small,米詩堤極北藍點,石門區頭圍段八甲小段1-101號,石門區德茂里,121.5234517,25.2856252,264.66244355977267,-1.5877966925679663,162587.0,,4.1,2591.0
NTC,small,職藝咖啡,新北市林口區文化一路一段228號,林口區西林里,121.3794562,25.0757493,11292.66604172896,3.8018000853018505,3610018.0,1021.0,4.5,132.0
TPE,small,胖豆恋 SWEET CAFE,台北市大同區長安西路190號,大同區建明里,121.515684,25.051097,21679.756337171104,-2.6617841592189606,1336075.0,2040.0,5.0,1.0
TPE,small,南美咖啡士林店,台北市士林區文林路446號,士林區福佳里,121.5246671,25.0953305,15267.504851394611,-1.1736740378683366,3094444.0,2133.0,4.3,502.0
NTC,small,生產者咖啡,新北市板橋區忠孝路275號,中和區國光里,121.4674412,25.0031464,63685.95524483914,-1.2682211502192953,1052430.0,3034.0,4.7,121.0
TPE,small,Instil coffee dimension,台北市大安區復興南路二段78巷2號地下,大安區龍圖里,121.542826,25.0309893,31034.078878504435,-1.1456625282339448,4097363.0,2502.0,4.7,209.0
TPE,small,Cafe Walker,臺北市信義區松勤街5號,信義區景新里,121.560539,25.032214,24066.68294620556,-0.8379766696634464,3119196.0,3591.0,4.3,171.0
NTC,small,翁林．林Caf'e,新北市板橋區民生路二段234巷24弄6號,板橋區華江里,121.4702863,25.0222591,65707.41713444446,0.0449309267860501,3015293.0,3500.0,4.5,731.0
TPE,small,Trine&zen 崔妮傑恩 微風中研院店,115台北市南港區研究院路二段128號,南港區中研里,121.6121003,25.0426284,10272.320224086365,-0.7063616294252857,3718581.0,,4.3,384.0
TPE,small,Balcony 陽台 Café,台北市中山區大直街34巷20號2F,中山區大直里,121.545608,25.081589,14193.57851356997,-1.957954611540528,3928563.0,1721.0,4.3,353.0
TPE,small,喬安拾豆咖啡 Gian 6 degrees Coffee,台北市大安區復興南路一段279巷28號,大安區仁慈里,121.5450064,25.0355027,47650.26670549039,-0.1075774855597029,3559340.0,1825.0,4.4,73.0
NTC,small,石尚自然探索屋 二子坪店,新北市三芝區興華里車埕53-3號(遊客中心),三芝區興華里,121.5252407,25.1860896,201.51502319040367,-0.5841484958852838,247866.0,,3.7,76.0
TPE,small,喜鵲咖啡 Magpie Caf'e,104台北市中山區龍江路2號,中山區朱崙里,121.5402901,25.0470572,23137.60128868763,0.447031917993194,1401459.0,2266.0,3.9,108.0
NTC,small,COFFEE: CAPE,新北市新店區中正路332號,新店區百和里,121.536927,24.9751029,27408.59641923467,-1.4078926956534232,1122400.0,1670.0,4.8,53.0
NTC,small,希望種子咖啡工坊,新北市新店區北新路二段24號,新店區張北里,121.5429818,24.9713766,39097.13040958381,0.4245257629399053,3725308.0,1969.0,4.4,140.0
TPE,small,N2-coffee Bike 氮氣冷萃咖啡,100台北市中正區信義路二段17巷10號,中正區文祥里,121.5255546,25.035868,72693.02961504727,-0.0149651873221282,4468052.0,1960.0,4.9,190.0
TPE,small,OrigInn Space,台北市大同區南京西路247號,大同區永樂里,121.5100807,25.0535585,23000.6420621864,-2.563822415300887,2260654.0,1663.0,4.6,139.0
NTC,small,白日夢TEA&CAFE,新北市石門區阿里荖47之2號,石門區草里里,121.6061039,25.2790084,176.8575685038609,-1.9599863602118923,134837.0,,4.4,1459.0
TPE,small,鴉埠咖啡 YABOO II 貳號店,台北市大安區麗水街9巷10-1號,大安區永康里,121.529266,25.030483,31997.07455318371,-0.3879108995447892,2133014.0,5057.0,4.3,283.0
TPE,small,咖朵咖啡,10691台北市大安區敦化南路一段190巷16號,大安區光武里,121.5477047,25.0425613,37131.21454223301,-1.4931504734489267,3643217.0,5203.0,4.2,1246.0
TPE,small,凱倫咖啡,台北市中山北路二段65巷2弄5號,中山區中山里,121.523906,25.056744,40836.41319827053,-0.122099768933559,2793229.0,2718.0,5.0,50.0
NTC,small,曼曼咖啡,新北市淡水區英專路65巷14號,淡水區長庚里,121.4451182,25.1712956,20453.826334583915,-1.253896200101782,403139.0,2589.0,4.0,1591.0
NTC,small,塞特咖啡場所  coffee site,新北市三重區文化南路8-2號,三重區福星里,121.5002682,25.062203,57308.40875388312,2.335287079942342,284614.0,,4.6,113.0
NTC,small,咖啡葉 CoffeeLeaf,241新北市三重區正義北路77號,三重區文化里,121.4972469,25.0649113,33207.231039787286,-2.821457146245236,568666.0,2303.0,4.4,269.0
TPE,small,Moi Cafe 仁愛店,台北市仁愛路四段408巷13號,大安區光信里,121.5569862,25.037229,57255.34162721282,-1.347133175535845,4260737.0,2077.0,4.1,442.0
TPE,small,es Cafe,10361台北市大同區承德路二段189號,大同區雙連里,121.518424,25.059268,45755.81743704651,-1.6253702410616633,2957639.0,5891.0,4.6,28.0
TPE,small,虹喬咖啡,台北市大同區庫倫街48號,大同區至聖里,121.5181439,25.0717422,34161.35139064609,-1.824902108387624,2667975.0,1168.0,4.2,99.0
TPE,small,19烘豆研究室,台北市松山區民生東路五段175之1號,松山區富錦里,121.5641462,25.0597868,52291.6568160672,-1.3280464549128013,2356196.0,2132.0,5.0,9.0
TPE,small,Cross Café克勞斯咖啡店,106台北市大安區仁愛路四段91巷23號,大安區仁愛里,121.5466962,25.0386526,24419.36184067723,-1.9434139324837687,4153950.0,4279.0,4.3,829.0
TPE,small,咖竅Cotcha Coffee 永春店,No. 412-7忠孝東路五段信義區台北市110,信義區廣居里,121.575344,25.040422,46898.13343764388,-1.934711930954099,3566973.0,2407.0,4.1,346.0
TPE,small,Ferrari coffee ,台北市中山區雙城街17巷10-1號,中山區恆安里,121.5247676,25.0645026,38794.34495285343,0.0757945193323431,2117078.0,2943.0,4.5,486.0
TPE,small,1315 coffee,台北市信義區松隆路15號,信義區敦厚里,121.566915,25.043523,46201.67226470378,-1.4881146218298578,2337411.0,4717.0,4.5,778.0
TPE,small,逗留食間Time Point,100台北市中正區金門街1巷1號,中正區河堤里,121.5230419,25.0212165,28789.191769954883,-1.6970278089979047,2044258.0,1216.0,3.6,43.0
TPE,small,加爾第咖啡(莊敬店),台北市信義區吳興街269巷1弄21號,信義區三張里,121.563975,25.027609,30014.71087611474,-1.33597831846215,4064796.0,2673.0,4.4,368.0
TPE,small,La Grotta,台北市中正區中華路一段77號1樓,中正區建國里,121.5078383,25.038885,2974.320746175957,0.8190784593190928,860317.0,2782.0,4.5,745.0
TPE,small,Coffee to know 咖啡知道,台北市松山區八德路四段723號,松山區慈祐里,121.5772625,25.0502211,27650.057474992504,-0.3575180954236886,2393420.0,3578.0,4.6,48.0
TPE,small,自由51,台北市文山區羅斯福路五段150巷59號1樓,文山區萬年里,121.5378133,25.0073894,15491.216284866105,-1.472309893255582,2202694.0,,4.2,162.0
TPE,small,MamiCoffee媽咪咖啡館,111台北市士林區天母西路73號,士林區天壽里,121.5253364,25.1185931,24822.357325206674,-0.4801628565871556,3059189.0,1638.0,4.1,103.0
NTC,small,May i COFFEE you ? 美艾咖啡友,24254新北市新莊區銘德街31號,新莊區思源里,121.45826,25.043555,17351.863966419674,-0.9593134446949462,1371799.0,1373.0,4.6,202.0
TPE,small,半路咖啡halfway cafe,台北市大安區羅斯福路三段269巷51弄9號,大安區大學里,121.531603,25.020138,45612.20539650289,-0.2215433181810648,4643860.0,1541.0,4.4,406.0
TPE,small,丹堤咖啡,台北市大安區和平東路三段38號,大安區虎嘯里,121.5476531,25.0245088,26169.627795738656,-1.6230082674922208,2281243.0,2872.0,3.8,482.0
TPE,small,好日子咖啡,112台灣台北市北投區立農街二段293號,北投區永明里,121.5159304,25.1187368,46157.60790616649,-0.3756780272461993,1966581.0,4032.0,4.4,624.0
TPE,small,叁拾叁咖啡 - 安東店,10491台北市中山區安東街1-6號,中山區埤頭里,121.5418047,25.04656,18172.88568629984,-2.5247991176081896,1403888.0,3744.0,4.8,54.0
TPE,small,台博咖啡館恐龍餐廳,台北市中正區襄陽路25號,中正區黎明里,121.5141637,25.0435651,5734.29678372022,0.5857702086999723,1631191.0,3884.0,4.1,125.0
TPE,small,小紅帽咖啡Julius Meinl,台北市大安區大安路一段170號,大安區仁慈里,121.545911,25.0366411,47650.26670549039,-0.1075774855597029,3559340.0,1825.0,4.2,143.0
NTC,small,老窩咖啡-林口仁愛店,244新北市林口區仁愛路二段257號,林口區南勢里,121.3740369,25.0770847,6952.096520265434,10.359882106826465,10578817.0,1832.0,4.4,108.0
TPE,small,Here Caffe這兒咖啡,台北市文山區新光路一段12號,文山區萬興里,121.573599,24.988674,2935.045209965007,-0.5960606859766848,4072411.0,1500.0,4.3,635.0
TPE,small,George House,台北市中山區松江路259巷33號1樓,中山區松江里,121.534755,25.0596165,33570.083333341936,-1.3080094299967668,2988501.0,1718.0,4.5,142.0
NTC,small,點點甜甜 Ten Ten Den Den,新北市板橋區光正街45巷2弄2號,板橋區漢生里,121.461712,25.0173549,38806.51813655068,-0.371391135623759,1343852.0,2143.0,4.3,1353.0
NTC,small,兜麥咖啡,新北市蘆洲區中原路一之三號一樓,蘆洲區忠義里,121.4610058,25.0831779,42919.43300770271,-0.38989258934962,678550.0,5633.0,4.3,207.0
TPE,small,布夏拉堤,台北市內湖區康寧路一段76號,內湖區紫星里,121.5925028,25.0798622,36569.88363758725,-1.2221708611714155,3116160.0,2144.0,4.8,314.0
TPE,small,It's Coffee,台北市中山區中山北路一段105巷4號1F,中山區正得里,121.522738,25.050809,24953.495137385096,-0.8080099136045386,1859218.0,2674.0,4.0,144.0
TPE,small,The Quiet Light 默光咖啡,#NAME?,大安區龍生里,121.5393518,25.0266049,56282.88911479816,-0.6473520797857606,3988748.0,3217.0,4.7,127.0
TPE,small,中央公園咖啡館,台北市中正區羅斯福路三段240巷3號,中正區文盛里,121.530254,25.018081,24170.67725848128,3.3676818985766133,1086607.0,4802.0,4.3,432.0
TPE,small,爺茶 GRANDPA,台北市中山區伊通街127-3號,中山區中央里,121.5349749,25.0542429,14986.753326120555,-1.4515914528251774,1610149.0,3224.0,0.0,0.0
TPE,small,boven cafe,台北市復興南路一段107巷5弄18號,大安區光武里,121.5451715,25.0441952,37131.21454223301,-1.4931504734489267,3643217.0,5203.0,4.5,158.0
TPE,small,小城外珈琲 Caffé CityNorth,台北市大同區民樂街34號2樓,大同區永樂里,121.5107779,25.0564743,23000.6420621864,-2.563822415300887,2260654.0,1663.0,5.0,2.0
TPE,small,漸漸咖啡店,台北市中正區銅山街3巷2號1樓,中正區文北里,121.5261773,25.0403858,33351.541839451034,-0.4610885914708558,5198472.0,2179.0,4.7,274.0
TPE,small,Condos coffee&tea莉園商行,臺北市中正區信義路二段79巷34號,中正區文祥里,121.5257065,25.036126,72693.02961504727,-0.0149651873221282,4468052.0,1960.0,4.9,7.0
