id,time,city,address,filter,price,area,deposit,mgmt_fee,parking_space,min_lease,decor,register,g_location1,g_location2,g_address,lat,long,floor,bldg_floor,density_2021,ave_pop_growth,2019_income
11507540,21-Dec,TPE,台北市大安區忠孝東路四段170巷11號,大安區建倫里,280000,40,面議,3100.0,,1月,高檔裝潢,已辦,"25.0406600,121.5508890","25°02'26.4""N 121°33'03.2""E",10688台北市大安區忠孝東路四段170巷9號,25.04066,121.550889,1F,10F,37710.81747880526,-0.986778955176056,4386578.0
11813815,21-Dec,TPE,台北市松山區光復北路9號,松山區吉祥里,200000,58,面議,7590.0,平面式停車位，費用另計,3年,簡易裝潢,已辦,"25.0490590,121.5580538","25°02'56.6""N 121°33'29.0""E",105台北市松山區光復北路9號,25.049059,121.5580538,1F,11F,37638.327773377416,-2.22744392785527,3913526.0
11797143,21-Dec,TPE,台北市文山區萬隆街54號,文山區萬隆里,45000,26,面議,,平面式停車位，費用另計,一年,尚未裝潢,已辦,"25.0014721,121.5381671","25°00'05.3""N 121°32'17.4""E",116台北市文山區羅斯福路五段236巷,25.0014721,121.5381671,1F,6F,59693.131294214894,-1.047538955886059,3037729.0
11457573,21-Dec,TPE,台北市內湖區成功路四段30巷16號,內湖區內湖里,450000,220,面議,,平面式停車位，費用另計,一年,尚未裝潢,已辦,"25.0823210,121.5914660","25°04'56.4""N 121°35'29.3""E",114台北市內湖區內湖路二段376巷7號2號樓之1,25.082321,121.591466,1F,6F,39958.036112448775,0.6199535700751675,2799230.0
9058119,21-Dec,TPE,台北市大同區赤峰街8巷4號,大同區光能里,188000,30,面議,,,3年,簡易裝潢,已辦,"25.0539374,121.5190510","25°03'14.2""N 121°31'08.6""E",103台北市大同區赤峰街8巷8號,25.0539374,121.519051,1F,5F,43157.00380037817,-0.956768936386195,1841575.0
11603767,21-Dec,TPE,台北市南港區經貿二路,南港區三重里,548982,216,面議,,,兩年,尚未裝潢,已辦,"25.0588747,121.6137051","25°03'32.0""N 121°36'49.3""E",115台北市南港區三重路19-12號,25.0588747,121.6137051,1F,23F,7451.3328837748495,1.368015199290292,5225294.0
11842623,21-Dec,TPE,台北市內湖區行善路446號,內湖區石潭里,186980,93,二個月,10284.0,平面式停車位，費用另計,兩年,尚未裝潢,已辦,"25.0647383,121.5862080","25°03'53.1""N 121°35'10.4""E",114台北市內湖區行善路417巷34-22,25.0647383,121.586208,1F,9F,3375.4102863248645,-0.9928052403989676,2309549.0
11652214,21-Dec,TPE,台北市中山區中山北路二段,中山區集英里,230000,80,二個月,4000.0,,一年,中檔裝潢,已辦,"25.0638669,121.5219346","25°03'49.9""N 121°31'19.0""E",10491台北市中山區撫順街,25.0638669,121.5219346,1F,12F,20744.09637439897,-0.5990158578695226,2900878.0
11562769,21-Dec,TPE,台北市大同區南京西路,大同區建泰里,350000,48,面議,,,一年,中檔裝潢,已辦,"25.0521511,121.5188021","25°03'07.7""N 121°31'07.7""E",103台北市大同區南京西路64巷17號,25.0521511,121.5188021,1F,13F,30955.766105813625,-1.645254118838431,1562629.0
11838460,21-Dec,TPE,台北市中山區中山北路一段,中山區正得里,170000,22,面議,,,一年,簡易裝潢,已辦,"25.0515446,121.5226169","25°03'05.6""N 121°31'21.4""E",10491台北市中山區中山北路一段125號,25.0515446,121.5226169,1F,3F,24953.495137385096,-0.8080099136045386,1859218.0
11597151,21-Dec,TPE,台北市中正區金山南路一段117號,中正區文祥里,78000,29,二個月,,,一年,中檔裝潢,已辦,"25.0363195,121.5278641","25°02'10.8""N 121°31'40.3""E",100台北市 中正區金山南路一段117號1樓,25.0363195,121.5278641,整棟,3F,72693.02961504727,-0.0149651873221282,4468052.0
11733403,21-Dec,TPE,台北市信義區松山路292巷,信義區永春里,85000,25,面議,,,一年,簡易裝潢,已辦,"25.0443244,121.5782142","25°02'39.6""N 121°34'41.6""E",110台北市信義區松山路249巷2號,25.0443244,121.5782142,1F,4F,34693.51234855628,-1.0848720135081091,1613405.0
11662403,21-Dec,TPE,台北市大安區安和路一段,大安區建倫里,110000,28,面議,,,一年,簡易裝潢,已辦,"25.0390619,121.5516269","25°02'20.6""N 121°33'05.9""E",106台北市大安區雲河大廈,25.0390619,121.5516269,1F,12F,37710.81747880526,-0.986778955176056,4386578.0
11562534,21-Dec,TPE,台北市大同區南京西路,大同區建泰里,160000,28,面議,,,一年,簡易裝潢,已辦,"25.0524345,121.5175485","25°03'08.8""N 121°31'03.2""E",103台北市大同區承德路一段83號 4號之1,25.0524345,121.5175485,1F,4F,30955.766105813625,-1.645254118838431,1562629.0
11660798,21-Dec,TPE,台北市信義區松山路342巷,信義區永春里,70000,14,面議,,,一年,簡易裝潢,已辦,"25.0424198,121.5783068","25°02'32.7""N 121°34'41.9""E",110台北市信義區松山路287巷6弄12號,25.0424198,121.5783068,1F,15F,34693.51234855628,-1.0848720135081091,1613405.0
11542746,21-Dec,TPE,台北市松山區八德路三段,松山區東勢里,360000,87,面議,,,一年,簡易裝潢,已辦,"25.0525538,121.5535611","25°03'09.2""N 121°33'12.8""E",105台北市松山區南京東路四段75巷22號,25.0525538,121.5535611,1F,16F,48624.10399842985,-1.321430623645329,2174535.0
11632794,21-Dec,TPE,台北市松山區敦化北路,松山區民有里,1200000,332,面議,,,一年,簡易裝潢,已辦,"25.0590327,121.5467246","25°03'32.5""N 121°32'48.2""E",105台北市松山區復興北路313巷39號,25.0590327,121.5467246,1F,11F,32173.69790922893,-1.48568348970007,5637140.0
11648473,21-Dec,TPE,台北市信義區忠孝東路五段,信義區永春里,120000,20,面議,,,一年,簡易裝潢,已辦,"25.0417761,121.5780931","25°02'30.4""N 121°34'41.1""E",110台北市信義區松山路,25.0417761,121.5780931,1F,21F,34693.51234855628,-1.0848720135081091,1613405.0
11660792,21-Dec,TPE,台北市松山區南京東路三段,松山區中正里,400000,181,面議,,,一年,中檔裝潢,已辦,"25.0511407,121.5467474","25°03'04.1""N 121°32'48.3""E",105台北市松山區南京東路三段300號,25.0511407,121.5467474,1F,10F,29466.572383481845,-1.142283607167164,5786935.0
11732527,21-Dec,TPE,台北市萬華區武昌街二段,萬華區萬壽里,230000,54,面議,,,一年,簡易裝潢,已辦,"25.0451292,121.5086402","25°02'42.5""N 121°30'31.1""E",108台北市萬華區,25.0451292,121.5086402,1F,2F,18289.4591152021,-2.330547523226419,1136466.0
11733410,21-Dec,TPE,台北市萬華區西寧南路,萬華區西門里,180000,20,面議,,,一年,簡易裝潢,已辦,"25.0435130,121.5056371","25°02'36.7""N 121°30'20.3""E",108台北市萬華區峨眉街52號,25.043513,121.5056371,1F,4F,26509.87919140661,-1.659900826861464,1282956.0
11534275,21-Dec,TPE,台北市大安區忠孝東路四段181巷,大安區建倫里,300000,45,面議,,,一年,簡易裝潢,已辦,"25.0414813,121.5507532","25°02'29.3""N 121°33'02.7""E",106大安區信義路四段168號12樓,25.0414813,121.5507532,1F,7F,37710.81747880526,-0.986778955176056,4386578.0
11660831,21-Dec,TPE,台北市信義區忠孝東路五段,信義區松光里,150000,50,面議,,,一年,簡易裝潢,已辦,"25.0416805,121.5794145","25°02'30.1""N 121°34'45.9""E",110台北市信義區忠孝東路五段530號,25.0416805,121.5794145,1F,4F,44306.03221211958,-1.4008870382433258,1907779.0
11726279,21-Dec,TPE,台北市松山區復興北路,松山區中正里,200000,30,面議,,,一年,簡易裝潢,已辦,"25.0513693,121.5449639","25°03'04.9""N 121°32'41.9""E",105台北市松山區復興北路81巷,25.0513693,121.5449639,1F,16F,29466.572383481845,-1.142283607167164,5786935.0
11732930,21-Dec,TPE,台北市萬華區武昌街二段,萬華區萬壽里,170000,27,面議,,,一年,簡易裝潢,已辦,"25.0451292,121.5086402","25°02'42.5""N 121°30'31.1""E",108台北市萬華區,25.0451292,121.5086402,1F,2F,18289.4591152021,-2.330547523226419,1136466.0
11763015,21-Dec,TPE,台北市大安區仁愛路四段,大安區建倫里,200000,189,面議,,,一年,簡易裝潢,已辦,"25.0378586,121.5502957","25°02'16.3""N 121°33'01.1""E",106台北市大安區仁愛路四段,25.0378586,121.5502957,1F,2F,37710.81747880526,-0.986778955176056,4386578.0
11534254,21-Dec,TPE,台北市大安區忠孝東路四段181巷,大安區建倫里,200000,30,面議,,,一年,簡易裝潢,已辦,"25.0414813,121.5507532","25°02'29.3""N 121°33'02.7""E",106大安區信義路四段168號12樓,25.0414813,121.5507532,1F,7F,37710.81747880526,-0.986778955176056,4386578.0
11559956,21-Dec,TPE,台北市大安區復興南路一段,大安區光武里,200000,37,面議,,,一年,簡易裝潢,已辦,"25.0441230,121.5448171","25°02'38.8""N 121°32'41.3""E",106台北市大安區光武里,25.044123,121.5448171,1F,4F,37131.21454223301,-1.4931504734489267,3643217.0
11651365,21-Dec,TPE,台北市信義區松山路,信義區松光里,90000,28,面議,,,一年,中檔裝潢,已辦,"25.0410526,121.5788466","25°02'27.8""N 121°34'43.9""E",11083台北市信義區忠孝東路五段508號2號樓之5,25.0410526,121.5788466,1F,4F,44306.03221211958,-1.4008870382433258,1907779.0
11493220,21-Dec,TPE,台北市中正區信陽街,中正區黎明里,380000,119,面議,,,一年,簡易裝潢,已辦,"25.0437429,121.5155751","25°02'37.5""N 121°30'56.1""E",100台北市中正區南陽街64號,25.0437429,121.5155751,1F,4F,5734.29678372022,0.5857702086999723,1631191.0
11733396,21-Dec,TPE,台北市松山區長安東路二段,松山區中正里,60000,23,面議,,,一年,中檔裝潢,已辦,"25.048125,121.545209","25°02'53.3""N 121°32'42.8""E",105台北市松山區長安東路二段294號4號,25.048125,121.545209,1F,12F,29466.572383481845,-1.142283607167164,5786935.0
11660825,21-Dec,TPE,台北市大安區敦化南路一段,大安區光武里,400000,140,面議,,,一年,簡易裝潢,已辦,"25.0432651,121.5485800","25°02'35.8""N 121°32'54.9""E",106台北市大安區敦化南路1段,25.0432651,121.54858,1F,4F,37131.21454223301,-1.4931504734489267,3643217.0
11528039,21-Dec,TPE,台北市大安區敦化南路一段232巷,大安區光武里,85000,20,面議,,,一年,簡易裝潢,已辦,"25.0418524,121.5484743","25°02'30.7""N 121°32'54.5""E",106台北市大安區忠孝東路四段107號,25.0418524,121.5484743,1F,14F,37131.21454223301,-1.4931504734489267,3643217.0
11801631,21-Dec,TPE,台北市大安區通化街,大安區通安里,250000,32,面議,,,一年,簡易裝潢,已辦,"25.0306274,121.5533954","25°01'50.3""N 121°33'12.2""E",106台北市大安區通安街71號4F之1,25.0306274,121.5533954,1F,2F,45862.811009044686,-2.121355125270963,2358251.0
11539813,21-Dec,TPE,台北市大安區信義路四段,大安區通化里,70000,19,面議,,,一年,簡易裝潢,已辦,"25.0320536,121.5560786","25°01'55.4""N 121°33'21.9""E",106台北市大安區文昌街,25.0320536,121.5560786,1F,4F,52598.05455926029,-0.7276535600304463,2422355.0
11801138,21-Dec,TPE,台北市萬華區成都路,萬華區西門里,150000,27,面議,,,一年,簡易裝潢,已辦,"25.0433520,121.5070250","25°02'36.1""N 121°30'25.3""E",108台北市萬華區漢中街,25.043352,121.507025,1F,2F,26509.87919140661,-1.659900826861464,1282956.0
11626665,21-Dec,TPE,台北市信義區松山路,信義區富台里,170000,35,面議,,,一年,簡易裝潢,已辦,"25.041293,121.5776134","25°02'28.7""N 121°34'39.4""E",110台北市信義區松山路,25.041293,121.5776134,1F,15F,39816.76760778728,-0.7362009135914189,1981177.0
11707534,21-Dec,TPE,台北市信義區松山路342巷,信義區永春里,70000,14,面議,,,一年,簡易裝潢,已辦,"25.0424198,121.5783068","25°02'32.7""N 121°34'41.9""E",110台北市信義區松山路287巷6弄12號,25.0424198,121.5783068,1F,15F,34693.51234855628,-1.0848720135081091,1613405.0
11806811,21-Dec,TPE,台北市大安區通化街,大安區通化里,110000,18,面議,,,一年,簡易裝潢,已辦,"25.0318118,121.5551719","25°01'54.5""N 121°33'18.6""E",106台北市大安區通化街19巷15號,25.0318118,121.5551719,1F,3F,52598.05455926029,-0.7276535600304463,2422355.0
11801153,21-Dec,TPE,台北市大安區信義路四段,大安區通安里,400000,95,面議,,,一年,簡易裝潢,已辦,"25.0325097,121.5536563","25°01'57.0""N 121°33'13.2""E",106台北市大安區文昌街,25.0325097,121.5536563,1F,12F,45862.811009044686,-2.121355125270963,2358251.0
11804619,21-Dec,TPE,台北市信義區信義路四段,信義區西村里,150000,67,面議,,,一年,中檔裝潢,已辦,"25.0338277,121.5608696","25°02'01.8""N 121°33'39.1""E",110台北市信義區信義路五段1號台北國際會議中心,25.0338277,121.5608696,1F,14F,11068.765051709444,-1.2116072327724936,1865725.0
11735507,21-Dec,TPE,台北市大安區文昌街,信義區中興里,28000,15,面議,,,一年,簡易裝潢,已辦,"25.0322446,121.5577305","25°01'56.1""N 121°33'27.8""E",110台北市信義區文昌街331號 號,25.0322446,121.5577305,1F,12F,40963.870491628986,-2.777515761489635,1737789.0
11801148,21-Dec,TPE,台北市大安區敦化南路一段233巷,大安區車層里,79000,21,面議,,,一年,簡易裝潢,已辦,"25.0412130,121.5531100","25°02'28.4""N 121°33'11.2""E",106台北市大安區台5線218號阿波羅大廈,25.041213,121.55311,1F,13F,52235.02986114866,-1.1391250192385924,4043221.0
11538414,21-Dec,TPE,台北市大同區赤峰街,大同區光能里,100000,30,面議,,,一年,簡易裝潢,已辦,"25.0543315,121.5199655","25°03'15.6""N 121°31'11.9""E",103台北市大同區赤峰街33巷,25.0543315,121.5199655,1F,4F,43157.00380037817,-0.956768936386195,1841575.0
11534234,21-Dec,TPE,台北市大安區忠孝東路四段181巷,大安區建倫里,450000,75,面議,,,一年,簡易裝潢,已辦,"25.0414813,121.5507532","25°02'29.3""N 121°33'02.7""E",106大安區信義路四段168號12樓,25.0414813,121.5507532,1F,7F,37710.81747880526,-0.986778955176056,4386578.0
11737008,21-Dec,TPE,台北市中正區衡陽路,中正區光復里,250000,55,面議,,,一年,簡易裝潢,已辦,"25.0432741,121.5118131","25°02'35.8""N 121°30'42.5""E",100台北市中正區博愛路,25.0432741,121.5118131,1F,4F,12649.652578401554,-0.5278111110776547,1658650.0
11700258,21-Dec,TPE,台北市大安區安和路二段69巷,大安區通化里,55000,15,面議,,,一年,簡易裝潢,已辦,"25.0331730,121.5532400","25°01'59.4""N 121°33'11.7""E",106台北市大安區信義路四段236號,25.033173,121.55324,1F,8F,52598.05455926029,-0.7276535600304463,2422355.0
11727289,21-Dec,TPE,台北市萬華區武昌街二段,萬華區萬壽里,200000,34,面議,,,一年,簡易裝潢,已辦,"25.0436652,121.5076714","25°02'37.2""N 121°30'27.6""E",108台北市萬華區峨眉街,25.0436652,121.5076714,1F,2F,18289.4591152021,-2.330547523226419,1136466.0
11763006,21-Dec,TPE,台北市大安區仁愛路四段,大安區建倫里,650000,124,面議,,,一年,簡易裝潢,已辦,"25.0378586,121.5502957","25°02'16.3""N 121°33'01.1""E",106台北市大安區仁愛路四段,25.0378586,121.5502957,1F,15F,37710.81747880526,-0.986778955176056,4386578.0
11760957,21-Dec,TPE,台北市大安區忠孝東路四段77巷,大安區光武里,100000,20,面議,,,一年,簡易裝潢,已辦,"25.0430932,121.5479376","25°02'35.1""N 121°32'52.6""E",106台北市大安區大安路一段51巷49-3號,25.0430932,121.5479376,1F,10F,37131.21454223301,-1.4931504734489267,3643217.0
11680955,21-Dec,TPE,台北市大安區臨江街,大安區通化里,70000,19,面議,,,一年,簡易裝潢,已辦,"25.0304277,121.5566208","25°01'49.5""N 121°33'23.8""E",106台北市大安區光復南路692巷24號,25.0304277,121.5566208,1F,3F,52598.05455926029,-0.7276535600304463,2422355.0
11758814,21-Dec,TPE,台北市大安區信義路四段,大安區德安里,75000,28,面議,,,一年,簡易裝潢,已辦,"25.0344453,121.5486780","25°02'04.0""N 121°32'55.2""E",106台北市大安區德安里,25.0344453,121.548678,1F,5F,39143.25089962484,-1.143844445436478,3570412.0
11774050,21-Dec,TPE,台北市大安區復興南路二段,大安區臥龍里,60000,30,面議,,,一年,簡易裝潢,已辦,"25.0241391,121.5444391","25°01'26.9""N 121°32'40.0""E",106台北市大安區篤行樓,25.0241391,121.5444391,1F,4F,12174.298463093412,1.4857124540307374,1102829.0
11530722,21-Dec,TPE,台北市中山區中山北路二段16巷,中山區民安里,100000,11,面議,,,一年,簡易裝潢,已辦,"25.0522534,121.5207083","25°03'08.1""N 121°31'14.6""E",104台北市中山區南京西路14號號B1,25.0522534,121.5207083,1F,4F,19806.234806991262,-1.4481974642719977,1982235.0
11673266,21-Dec,TPE,台北市松山區南京東路五段307號,松山區安平里,230000,130,二個月,,,1月,簡易裝潢,已辦,"25.0515266,121.5667101","25°03'05.5""N 121°34'00.2""E",105台北市松山區南京東路五段315號,25.0515266,121.5667101,整棟,4F,39713.64129092309,-0.951129010217396,3056857.0
11592512,21-Dec,TPE,台北市大安區永康街41巷,大安區福住里,85000,24,二個月,,,一年,中檔裝潢,已辦,"25.0305180,121.5297200","25°01'49.9""N 121°31'47.0""E",10650台北市大安區永康街41巷5號2樓,25.030518,121.52972,1F,3F,46562.18274987261,-0.2870694429470669,3835015.0
11495737,21-Dec,TPE,台北市松山區南京東路四段,松山區美仁里,10000,26,二個月,,,一年,中檔裝潢,未辦,"25.0510144,121.5542050","25°03'03.7""N 121°33'15.1""E",105台北市松山區寧安街68巷10-13號,25.0510144,121.554205,1F,5F,16941.311151316353,-0.0230335214696915,1806613.0
8290135,21-Dec,TPE,台北市大安區信義路二段,大安區光明里,32999,26,二個月,,,一年,中檔裝潢,未辦,"25.0333863,121.5254163","25°02'00.2""N 121°31'31.5""E",106台北市大安區信義路二段44巷24-2號,25.0333863,121.5254163,1F,5F,32501.768513443545,1.728812850254139,2246154.0
11810905,21-Dec,TPE,台北市信義區中坡北路25號,南港區合成里,85000,42,二個月,,,兩年,尚未裝潢,已辦,"25.0457989,121.5815289","25°02'44.9""N 121°34'53.5""E",115台北市南港區玉成街98巷1號,25.0457989,121.5815289,1F,7F,22945.810820419007,-1.896845737330081,2727227.0
11742547,21-Dec,TPE,台北市信義區信安街15巷3號,信義區嘉興里,40000,32,二個月,,,一年,已辦,已辦,"25.0279297,121.5584012","25°01'40.6""N 121°33'30.2""E",110台北市信義區信安街15巷3號,25.0279297,121.5584012,1F,4F,53680.5880660259,-1.829917621295148,1180055.0
11680613,21-Dec,TPE,台北市大安區泰順街50巷,大安區龍泉里,23000,15,二個月,,,一年,中檔裝潢,已辦,"25.0230730,121.5298450","25°01'23.1""N 121°31'47.4""E",106台北市大安區泰順街50巷,25.023073,121.529845,1F,4F,54874.388741148825,1.4411007152942634,2643091.0
11707447,21-Dec,TPE,台北市內湖區東湖路113巷,內湖區安湖里,50000,25,二個月,1500.0,平面式停車位，費用另計,一年,簡易裝潢,已辦,"25.0710252,121.6159674","25°04'15.7""N 121°36'57.5""E",114台北市內湖區東湖路113巷,25.0710252,121.6159674,1F,9F,51814.726189983085,-0.8104333399541493,3117732.0
11593500,21-Dec,TPE,台北市北投區石牌路一段75號,北投區吉慶里,61000,20,面議,,,兩年,尚未裝潢,已辦,"25.1137954,121.511366","25°06'49.7""N 121°30'40.9""E",112台北市北投區,25.1137954,121.511366,1F,7F,14730.633422908008,-1.73227956214513,1948177.0
11607991,21-Dec,TPE,台北市信義區和平東路三段,信義區黎忠里,68000,31,面議,,,兩年,尚未裝潢,已辦,"25.0203424,121.5570866","25°01'13.2""N 121°33'25.5""E",110台北市信義區和平東路三段361號,25.0203424,121.5570866,1F,4F,35135.89458994619,-1.7953005739919388,1624286.0
11482992,21-Dec,TPE,台北市信義區莊敬路,信義區景新里,60000,35,二個月,,平面式停車位，費用另計,兩年,中檔裝潢,已辦,"25.0291189,121.5625325","25°01'44.8""N 121°33'45.1""E",110台北市信義區莊敬路258號,25.0291189,121.5625325,1F,3F,24066.68294620556,-0.8379766696634464,3119196.0
11679923,21-Dec,TPE,台北市大安區溫州街86號,大安區大學里,100000,42,面議,,,兩年,尚未裝潢,已辦,"25.0189328,121.5327461","25°01'08.2""N 121°31'57.9""E",106台北市大安區溫州街86號,25.0189328,121.5327461,1F,4F,45612.20539650289,-0.2215433181810648,4643860.0
11789889,21-Dec,TPE,台北市士林區大南路5號,士林區仁勇里,100000,20,二個月,600.0,,一年,簡易裝潢,已辦,"25.0888760,121.5263420","25°05'20.0""N 121°31'34.8""E",111台北市士林區大南路,25.088876,121.526342,1F,4F,31935.038004579543,-2.2569285235763585,1266108.0
11071851,21-Dec,TPE,台北市中山區北安路573巷,中山區大直里,90000,40,二個月,,平面式停車位，已含租金內,兩年,高檔裝潢,未辦,"25.0814738,121.5474972","25°04'53.3""N 121°32'51.0""E",10491台北市中山區北安路573巷,25.0814738,121.5474972,1F,4F,14193.57851356997,-1.957954611540528,3928563.0
11744450,21-Dec,TPE,台北市中正區許昌街,中正區黎明里,360000,30,面議,,,兩年,簡易裝潢,已辦,"25.0455784,121.5161276","25°02'44.1""N 121°30'58.1""E",100台北市中正區國泰信託大樓,25.0455784,121.5161276,1F,4F,5734.29678372022,0.5857702086999723,1631191.0
11582613,21-Dec,TPE,台北市南港區新民街,南港區南港里,140000,70,二個月,,平面式停車位，費用另計,一年,簡易裝潢,已辦,"25.0555795,121.6111361","25°03'20.1""N 121°36'40.1""E",115台北市南港區新民街,25.0555795,121.6111361,1F,4F,16544.553038536433,0.6917206349828546,2200618.0
11380506,21-Dec,TPE,台北市松山區敦化南路一段1號,松山區福成里,422600,120,二個月,14490.0,平面式停車位，費用另計,3年,尚未裝潢,已辦,"25.0469152,121.5484836","25°02'48.9""N 121°32'54.5""E",105台北市松山區敦化南路1段薇閣大廈,25.0469152,121.5484836,1F,10F,36321.87931923504,-1.5766697407706864,1732171.0
11298599,21-Dec,TPE,台北市南港區研究院路一段99號,南港區新富里,192000,97,二個月,14490.0,平面式停車位，費用另計,3年,尚未裝潢,已辦,"25.0519772,121.6162338","25°03'07.1""N 121°36'58.4""E",115台北市南港區研究院路一段101巷9,25.0519772,121.6162338,1F,10F,22287.04804524885,-2.337074519703168,1321008.0
11769332,21-Dec,TPE,台北市中正區思源街1號,中正區富水里,100000,70,面議,,,一年,簡易裝潢,已辦,"25.0142842,121.5312512","25°00'51.4""N 121°31'52.5""E",100台北市中正區,25.0142842,121.5312512,1F,3F,8890.218083153719,-1.0079758530166705,1101086.0
11514682,21-Dec,TPE,台北市大安區復興南路二段,大安區群賢里,126000,23,二個月,,,一年,簡易裝潢,已辦,"25.0267007,121.5436363","25°01'36.1""N 121°32'37.1""E",106台北市大安區復興南路二段181-191號,25.0267007,121.5436363,1F,4F,40099.32584185052,-1.4901884547768418,3164367.0
11700331,21-Dec,TPE,台北市大安區信義路四段199巷13號,大安區敦安里,200000,60,"600,000",,,一年,尚未裝潢,已辦,"25.0346113,121.5517386","25°02'04.6""N 121°33'06.3""E",106台北市大安區信義路四段199巷13號,25.0346113,121.5517386,1F,7F,36504.079884274535,-0.9971817850142598,4242354.0
11859946,21-Dec,TPE,台北市大安區敦化南路一段187巷,大安區建安里,125000,35,二個月,,,一年,簡易裝潢,已辦,"25.0426030,121.5526300","25°02'33.4""N 121°33'09.5""E",106台北市大安區敦化南路一段187巷,25.042603,121.55263,1F,4F,32731.53217965089,-1.9321270953113423,3039876.0
11462308,21-Dec,TPE,台北市信義區大道路80號,信義區大道里,50000,30,面議,,,一年,未辦,已辦,"25.0405720,121.5824790","25°02'26.1""N 121°34'56.9""E",110台北市信義區大道路82號,25.040572,121.582479,1F,4F,50363.41494977358,-1.2439227409121698,2340995.0
11647806,21-Dec,TPE,台北市大安區敦化南路一段187巷2號,大安區建安里,400000,45,"840,000",5000.0,,一年,簡易裝潢,已辦,"25.0434066,121.5503996","25°02'36.3""N 121°33'01.4""E",106台北市大安區敦化南路一段161巷26-1號,25.0434066,121.5503996,1F,14F,32731.53217965089,-1.9321270953113423,3039876.0
11599499,21-Dec,TPE,台北市萬華區成都路,萬華區西門里,350000,68,二個月,,,半年,中檔裝潢,已辦,"25.0426659,121.507823","25°02'33.6""N 121°30'28.2""E",10844台北市萬華區成都路7號2樓,25.0426659,121.507823,1F,5F,26509.87919140661,-1.659900826861464,1282956.0
11537218,21-Dec,TPE,台北市大安區安和路一段36號,大安區建倫里,110000,28,面議,2025.0,,兩年,簡易裝潢,已辦,"25.0382750,121.5508400","25°02'17.8""N 121°33'03.0""E",106台北市大安區仁愛路四段139號,25.038275,121.55084,1F,12F,37710.81747880526,-0.986778955176056,4386578.0
11459872,21-Dec,TPE,台北市信義區永吉路326巷,信義區永春里,100000,24,面議,,,一年,簡易裝潢,已辦,"25.0417494,121.5791655","25°02'30.3""N 121°34'45.0""E",110台北市信義區台5線623號,25.0417494,121.5791655,1F,4F,34693.51234855628,-1.0848720135081091,1613405.0
11688833,21-Dec,TPE,台北市松山區八德路三段12巷,松山區敦化里,42000,13,二個月,,,一年,已辦,已辦,"25.0480744,121.5517434","25°02'53.1""N 121°33'06.3""E",105台北市松山區八德路三段32號3樓,25.0480744,121.5517434,1F,4F,52587.13943671021,-1.372783493489571,3483634.0
11688258,21-Dec,TPE,台北市松山區饒河街,松山區慈祐里,90000,80,二個月,,,一年,已辦,已辦,"25.0515130,121.5777500","25°03'05.5""N 121°34'39.9""E",105台北市松山區,25.051513,121.57775,整棟,4F,27650.057474992504,-0.3575180954236886,2393420.0
11804040,21-Dec,TPE,台北市萬華區長沙街二段,萬華區新起里,55000,24,面議,2229.0,,兩年,簡易裝潢,已辦,"25.0413519,121.5020372","25°02'28.9""N 121°30'07.3""E",108台北市萬華區康定路102號,25.0413519,121.5020372,1F,18F,53491.55855566798,0.5329850908669591,2414176.0
11391775,21-Dec,TPE,台北市萬華區西寧南路70號,萬華區萬壽里,150000,16,二個月,10000.0,,兩年,簡易裝潢,已辦,"25.0446440,121.5070270","25°02'40.7""N 121°30'25.3""E",108台北市萬華區武昌街二段52號,25.044644,121.507027,1F,10F,18289.4591152021,-2.330547523226419,1136466.0
11428108,21-Dec,TPE,台北市松山區延吉街,松山區吉仁里,62000,18,"186,000",,,一年,簡易裝潢,已辦,"25.046174,121.553714","25°02'46.2""N 121°33'13.4""E",105台北市松山區延吉街23巷5-1,25.046174,121.553714,1F,4F,67886.25390014867,-0.6299331643263351,1881966.0
11537394,21-Dec,TPE,台北市松山區市民大道四段185號,松山區敦化里,200000,63,二個月,,,5年,簡易裝潢,已辦,"25.0447649,121.5519280","25°02'41.2""N 121°33'06.9""E",105台北市松山區台北市東西向快速道路73號,25.0447649,121.551928,整棟,2F,52587.13943671021,-1.372783493489571,3483634.0
11449300,21-Dec,TPE,台北市萬華區昆明街,萬華區萬壽里,190000,60,面議,,,兩年,中檔裝潢,已辦,"25.0438093,121.5050232","25°02'37.7""N 121°30'18.1""E",108台北市萬華區昆明街102-118,25.0438093,121.5050232,整棟,2F,18289.4591152021,-2.330547523226419,1136466.0
11627823,21-Dec,TPE,台北市南港區研究院路一段99號,南港區新富里,1800000,602,二個月,54180.0,,一年,尚未裝潢,已辦,"25.0519772,121.6162338","25°03'07.1""N 121°36'58.4""E",115台北市南港區研究院路一段101巷9,25.0519772,121.6162338,1F,18F,22287.04804524885,-2.337074519703168,1321008.0
11809030,21-Dec,TPE,台北市大安區新生南路一段119巷,大安區民輝里,90000,60,二個月,500.0,平面式停車位，已含租金內,兩年,尚未裝潢,已辦,"25.0391800,121.5345470","25°02'21.1""N 121°32'04.4""E",106台北市大安區仁愛路三段5巷1弄,25.03918,121.534547,1F,6F,19754.7216469443,-1.6745114149710656,4878840.0
11717869,21-Dec,TPE,台北市松山區民生東路三段113巷,松山區民有里,110000,36,二個月,1285.0,,兩年,簡易裝潢,已辦,"25.058921,121.5476265","25°03'32.1""N 121°32'51.5""E","樓之1, No. 158號11松江路中山區台北市104",25.058921,121.5476265,1F,7F,32173.69790922893,-1.48568348970007,5637140.0
11821873,21-Dec,TPE,台北市南港區忠孝東路六段278巷,南港區聯成里,45000,30,二個月,,,一年,簡易裝潢,已辦,"25.0488459,121.5891720","25°02'55.9""N 121°35'21.0""E",115台北市南港區忠孝東路六段278巷,25.0488459,121.589172,1F,4F,40602.99234535999,-1.9070665093661472,1671074.0
11813502,21-Dec,TPE,台北市萬華區廣州街80號,萬華區福音里,75000,36,二個月,1000.0,,兩年,簡易裝潢,已辦,"25.0374305,121.5036777","25°02'14.8""N 121°30'13.2""E",108台北市萬華區昆明街257號,25.0374305,121.5036777,1F,9F,35203.106050926144,-1.2546580732447707,1256227.0
10831662,21-Dec,TPE,台北市中山區林森北路,中山區恆安里,115000,55,二個月,5000.0,平面式停車位，費用另計,兩年,尚未裝潢,已辦,"25.0631942,121.5254892","25°03'47.5""N 121°31'31.8""E",10491台北市中山區雙城街3巷,25.0631942,121.5254892,1F,18F,38794.34495285343,0.0757945193323431,2117078.0
11672188,21-Dec,TPE,台北市松山區八德路三段12巷,松山區敦化里,55000,45,二個月,400.0,,一年,簡易裝潢,已辦,"25.0467640,121.5510340","25°02'48.4""N 121°33'03.7""E",105台北市松山區八德路三段12巷17弄7號,25.046764,121.551034,1F,6F,52587.13943671021,-1.372783493489571,3483634.0
11339526,21-Dec,TPE,台北市大安區新生南路一段,大安區民炤里,200000,100,二個月,400.0,,一年,簡易裝潢,已辦,"25.0344971,121.5330363","25°02'04.2""N 121°31'58.9""E",106台北市大安區一品門庭大廈,25.0344971,121.5330363,1F,6F,32107.397188630363,-0.26806778685969,5999670.0
11566640,21-Dec,TPE,台北市內湖區瑞光路,內湖區港墘里,1200000,444,二個月,66630.0,,兩年,簡易裝潢,已辦,"25.0766298,121.5718042","25°04'35.9""N 121°34'18.5""E",114台北市內湖區瑞光路358巷54-32,25.0766298,121.5718042,1F,12F,9613.582377896171,-0.8184590318162618,2747906.0
11511096,21-Dec,TPE,台北市大同區延平北路三段5號,大同區隆和里,70000,40,二個月,,,一年,簡易裝潢,已辦,"25.0644902,121.5122332","25°03'52.2""N 121°30'44.0""E",103台北市大同區民權西路225巷30號,25.0644902,121.5122332,1F,19F,28441.772581083376,1.876526716202746,958446.0
11739265,21-Dec,TPE,台北市內湖區康樂街116號,內湖區樂康里,210000,119,二個月,5950.0,,兩年,尚未裝潢,已辦,"25.0710182,121.6189362","25°04'15.7""N 121°37'08.2""E",114台北市內湖區康樂街,25.0710182,121.6189362,1F,8F,50399.71208178392,-2.063177032055756,2809616.0
11835965,21-Dec,TPE,台北市大安區安和路二段,大安區義安里,120000,44,二個月,2000.0,,一年,尚未裝潢,已辦,"25.0308370,121.5519580","25°01'51.0""N 121°33'07.1""E",106台北市大安區敦化南路二段63巷,25.030837,121.551958,1F,10F,30537.58209428585,-1.0389453219592355,3844691.0
11751723,21-Dec,TPE,台北市信義區福德街232巷11號,信義區大仁里,88000,28,面議,,,兩年,中檔裝潢,已辦,"25.0382737,121.5838181","25°02'17.8""N 121°35'01.8""E",110台北市信義區大道路145巷145號,25.0382737,121.5838181,1F,5F,29826.22829248462,-1.4913476725553654,1177288.0
11758591,21-Dec,TPE,台北市內湖區陽光街287號,內湖區瑞光里,80000,65,二個月,,,兩年,已辦,已辦,"25.0739670,121.5800280","25°04'26.3""N 121°34'48.1""E",114台北市內湖區陽光街289號,25.073967,121.580028,1F,5F,34092.41130754835,-1.7537089194201272,1760734.0
11449485,21-Dec,TPE,台北市內湖區舊宗路95號,內湖區湖元里,422850,281,面議,28190.0,平面式停車位，費用另計,兩年,已辦,已辦,"25.0681292,121.5752629","25°04'05.3""N 121°34'31.0""E",114台北市內湖區舊宗路二段95號,25.0681292,121.5752629,1F,4F,2354.8240154726204,-1.6090779492294278,2436938.0
11824403,21-Dec,TPE,台北市士林區永公路500巷,士林區菁山里,88000,800,"300,000",,平面式停車位，已含租金內,3年,中檔裝潢,已辦,"25.1360083,121.5714136","25°08'09.6""N 121°34'17.1""E",111台北市士林區菁山里,25.1360083,121.5714136,1F,2F,135.70624352005353,-1.601117457541153,612576.0
11654424,21-Dec,TPE,台北市中山區明水路672巷,中山區成功里,167000,83,二個月,11330.0,平面式停車位，費用另計,3年,簡易裝潢,已辦,"25.0829744,121.5512882","25°04'58.7""N 121°33'04.6""E",10491台北市中山區明水路636號,25.0829744,121.5512882,1F,7F,10693.122623534107,-1.1796330089498022,5679811.0
11779940,21-Dec,TPE,台北市士林區天母西路3號,士林區天玉里,68000,10,二個月,1000.0,,一年,中檔裝潢,已辦,"25.1186511,121.5300322","25°07'07.1""N 121°31'48.1""E",111台北市士林區天玉里,25.1186511,121.5300322,1F,11F,35462.54610756712,-1.1936799367195197,4711672.0
11459015,21-Dec,TPE,台北市南港區忠孝東路六段420號,南港區新光里,110000,43,二個月,,平面式停車位，已含租金內,一年,簡易裝潢,已辦,"25.0499919,121.593149","25°02'60.0""N 121°35'35.3""E",115台北市南港區台5線422號,25.0499919,121.593149,1F,4F,2479.61084238802,-2.1604762753529334,1288046.0
9602909,21-Dec,TPE,台北市松山區敦化南路一段,松山區福成里,821700,240,二個月,19320.0,平面式停車位，費用另計,2年,尚未裝潢,已辦,"25.0470177,121.5489581","25°02'49.3""N 121°32'56.3""E",105台北市松山區敦化南路1段15號,25.0470177,121.5489581,1F,10F,36321.87931923504,-1.5766697407706864,1732171.0
11677377,21-Dec,TPE,台北市士林區中山北路六段,士林區蘭雅里,138000,57,面議,,,兩年,中檔裝潢,已辦,"25.1068400,121.5251740","25°06'24.6""N 121°31'30.6""E",111台北市士林區中山北路六段160號,25.10684,121.525174,1F,4F,42055.55223955024,-0.868220692979671,4362089.0
11668618,21-Dec,TPE,台北市松山區南京東路三段303巷8弄1號,松山區中正里,150000,38,二個月,,,5年,簡易裝潢,已辦,"25.0521722,121.5460172","25°03'07.8""N 121°32'45.7""E",105台北市松山區南京東路三段287號,25.0521722,121.5460172,1F,7F,29466.572383481845,-1.142283607167164,5786935.0
11766202,21-Dec,TPE,台北市松山區南京東路五段348號,松山區新聚里,150000,50,二個月,3420.0,,兩年,尚未裝潢,已辦,"25.0503840,121.5685170","25°03'01.4""N 121°34'06.7""E",105台北市松山區寶清街18-6號,25.050384,121.568517,1F,12F,52762.67911817818,-1.7180853774011684,3373427.0
10496883,21-Dec,TPE,台北市文山區羅斯福路六段72號,文山區景仁里,110000,60,面議,,,一年,中檔裝潢,已辦,"24.9986316,121.5401142","24°59'55.1""N 121°32'24.4""E",116台北市文山區羅斯福路六段68號1樓,24.9986316,121.5401142,1F,12F,23108.10429328943,3.859406077704245,2378552.0
5819251,21-Dec,TPE,台北市中正區忠孝西路一段,中正區黎明里,150000,20,面議,,,一年,中檔裝潢,已辦,"25.0467025,121.5165351","25°02'48.1""N 121°30'59.5""E",100台北市中正區黎明里,25.0467025,121.5165351,1F,12F,5734.29678372022,0.5857702086999723,1631191.0
11829865,21-Dec,TPE,台北市大安區和平東路三段,大安區黎和里,58000,33,二個月,,,兩年,簡易裝潢,已辦,"25.0197277,121.5564725","25°01'11.0""N 121°33'23.3""E",106台北市大安區富陽街,25.0197277,121.5564725,1F,4F,9095.4156388629,-2.8248444304285414,1985279.0
11682255,21-Dec,TPE,台北市松山區南京東路三段,松山區中正里,300000,25,二個月,,,一年,高檔裝潢,已辦,"25.0508026,121.5448159","25°03'02.9""N 121°32'41.3""E",105台北市松山區南京東路三段256巷20號,25.0508026,121.5448159,1F,11F,29466.572383481845,-1.142283607167164,5786935.0
11585861,21-Dec,TPE,台北市北投區大業路300巷,北投區中央里,85000,34,二個月,,平面式停車位，費用另計,一年,高檔裝潢,已辦,"25.1282237,121.4985773","25°07'41.6""N 121°29'54.9""E",112台北市北投區大業路300巷9弄2號1樓,25.1282237,121.4985773,1F,4F,30893.94933787493,-1.979792853836641,3164638.0
11589998,21-Dec,TPE,台北市信義區松山路435號,信義區松光里,90000,28,二個月,,,一年,簡易裝潢,已辦,"25.0402620,121.5780560","25°02'24.9""N 121°34'41.0""E",11083台北市信義區松山路435號,25.040262,121.578056,1F,4F,44306.03221211958,-1.4008870382433258,1907779.0
11533907,21-Dec,TPE,台北市中正區延平南路127號,中正區建國里,75000,30,面議,1500.0,,5年,簡易裝潢,已辦,"25.0384316,121.5086742","25°02'18.4""N 121°30'31.2""E",10042台北市中正區延平南路127號,25.0384316,121.5086742,1F,4F,2974.320746175957,0.8190784593190928,860317.0
11790693,21-Dec,TPE,台北市大安區大安路一段16巷21號,大安區光武里,80000,38,二個月,7600.0,,3年,尚未裝潢,已辦,"25.0435731,121.5449051","25°02'36.9""N 121°32'41.7""E",106台北市大安區復興南路一段107巷,25.0435731,121.5449051,1F,9F,37131.21454223301,-1.4931504734489267,3643217.0
11704236,21-Dec,TPE,台北市大同區迪化街二段248號,大同區鄰江里,36000,32,二個月,,平面式停車位，已含租金內,一年,中檔裝潢,已辦,"25.0695230,121.5113110","25°04'10.3""N 121°30'40.7""E",103台北市大同區迪化街二段,25.069523,121.511311,1F,4F,28079.063280029488,-0.8363631907631527,1823493.0
11620733,21-Dec,TPE,台北市大安區復興南路一段91號,大安區光武里,90000,35,二個月,,,一年,高檔裝潢,已辦,"25.0432816,121.5439534","25°02'35.8""N 121°32'38.2""E",106台北市大安區復興南路一段133-113,25.0432816,121.5439534,1F,12F,37131.21454223301,-1.4931504734489267,3643217.0
11831710,21-Dec,TPE,台北市松山區富錦街458號,松山區三民里,180000,75,二個月,,,3年,尚未裝潢,已辦,"25.0616582,121.5630271","25°03'42.0""N 121°33'46.9""E",105台北市松山區三民路167巷10號,25.0616582,121.5630271,1F,4F,50936.90007568448,-1.2328705774337014,3271597.0
11628136,21-Dec,TPE,台北市中山區吉林路393巷,中山區新福里,38000,28,二個月,,,一年,簡易裝潢,已辦,"25.0657511,121.5308425","25°03'56.7""N 121°31'51.0""E",10491台北市中山區吉林路393巷7號,25.0657511,121.5308425,1F,4F,37267.48854840043,-1.0439016765057505,1839588.0
11853326,21-Dec,TPE,台北市中正區武昌街一段,中正區光復里,200000,25,面議,,,兩年,簡易裝潢,已辦,"25.0441933,121.5089554","25°02'39.1""N 121°30'32.2""E",台北市武昌街二段,25.0441933,121.5089554,1F,4F,12649.652578401554,-0.5278111110776547,1658650.0
11829080,21-Dec,TPE,台北市內湖區新湖二路,內湖區湖元里,125000,101,二個月,7611.0,平面式停車位，費用另計,兩年,簡易裝潢,已辦,"25.0641373,121.5813728","25°03'50.9""N 121°34'52.9""E",114台北市內湖區新湖二路228號,25.0641373,121.5813728,1F,6F,2354.8240154726204,-1.6090779492294278,2436938.0
11608382,21-Dec,TPE,台北市中山區林森北路416巷3號,中山區聚盛里,37000,16,"100,000",1500.0,,一年,簡易裝潢,已辦,"25.0599099,121.5249354","25°03'35.7""N 121°31'29.8""E",10491台北市中山區錦州街30巷3號,25.0599099,121.5249354,1F,11F,34908.6678348258,-0.6871739024225665,1584544.0
11569586,21-Dec,TPE,台北市大安區基隆路四段43號,大安區學府里,45000,30,二個月,,,2年,中檔裝潢,未辦,"25.0130700,121.5415980","25°00'47.1""N 121°32'29.8""E",106台北市大安區學府里,25.01307,121.541598,1F,5F,1185.8372587440315,-1.2426123383023402,896141.0
11511700,21-Dec,TPE,台北市士林區士東路63號,士林區天祿里,150000,74,二個月,,,一年,尚未裝潢,已辦,"25.1121210,121.5280150","25°06'43.6""N 121°31'40.9""E",111台北市士林區士東路,25.112121,121.528015,整棟,2F,37789.09438410452,-1.1722861121640746,2386849.0
11675388,21-Dec,TPE,台北市大同區承德路二段117巷,大同區光能里,68000,20,二個月,,,兩年,尚未裝潢,已辦,"25.056891,121.518842","25°03'24.8""N 121°31'07.8""E",103台北市大同區承德路二段117巷19號,25.056891,121.518842,1F,1F,43157.00380037817,-0.956768936386195,1841575.0
11464728,21-Dec,TPE,台北市士林區中正路229號,士林區福林里,228000,24,二個月,,,3年,簡易裝潢,已辦,"25.0952232,121.5261376","25°05'42.8""N 121°31'34.1""E",111台北市士林區中正路229號,25.0952232,121.5261376,1F,2F,1433.364351090113,-2.379690432351496,1359341.0
11802193,21-Dec,TPE,台北市士林區大北路61號,士林區仁勇里,74500,80,二個月,,,一年,尚未裝潢,已辦,"25.0900421,121.5252838","25°05'24.2""N 121°31'31.0""E",111台北市士林區大北路63號2樓,25.0900421,121.5252838,整棟,4F,31935.038004579543,-2.2569285235763585,1266108.0
11863141,21-Dec,TPE,台北市士林區天母西路35號,士林區天壽里,170000,120,面議,,,一年,尚未裝潢,已辦,"25.1185869,121.5276980","25°07'06.9""N 121°31'39.7""E",111台北市士林區天母西路,25.1185869,121.527698,整棟,3F,24822.357325206674,-0.4801628565871556,3059189.0
11815254,21-Dec,TPE,台北市北投區承德路七段282號,北投區立賢里,98000,90,二個月,100.0,平面式停車位，已含租金內,一年,簡易裝潢,已辦,"25.1172107,121.5061572","25°07'02.0""N 121°30'22.2""E",112台北市北投區尊賢街245巷18號,25.1172107,121.5061572,1F,11F,13861.713401810244,-0.2636227115980253,1928843.0
11804605,21-Dec,TPE,台北市信義區莊敬路391巷,信義區三張里,48000,25,二個月,,,一年,尚未裝潢,已辦,"25.0279675,121.5657043","25°01'40.7""N 121°33'56.5""E",110台北市信義區莊敬路391巷4號,25.0279675,121.5657043,1F,7F,30014.71087611474,-1.33597831846215,4064796.0
11852711,21-Dec,TPE,台北市中山區新生北路三段,中山區新庄里,100000,50,二個月,,,一年,高檔裝潢,已辦,"25.0659340,121.5280970","25°03'57.4""N 121°31'41.2""E",10491台北市中山區新生北路三段,25.065934,121.528097,1F,9F,7672.599687243176,-2.2037582092711743,1461192.0
11718626,21-Dec,TPE,台北市中山區松江路435號,中山區行政里,110000,82,二個月,,,兩年,已辦,已辦,"25.0667148,121.5342538","25°04'00.2""N 121°32'03.3""E",10482台北市中山區建國北路三段92號,25.0667148,121.5342538,1F,7F,41269.023307441785,-1.436663756832394,2008243.0
11393145,21-Dec,TPE,台北市大安區敦化南路一段177巷16號,大安區建安里,240000,45,二個月,,平面式停車位，已含租金內,5年,簡易裝潢,已辦,"25.0429779,121.5499790","25°02'34.7""N 121°32'59.9""E",106台北市大安區敦化南路一段177巷,25.0429779,121.549979,整棟,3F,32731.53217965089,-1.9321270953113423,3039876.0
11359049,21-Dec,TPE,台北市中正區惠安街15號,中正區忠勤里,66000,30,二個月,,,1月,已辦,已辦,"25.0297050,121.5066400","25°01'46.9""N 121°30'23.9""E",100台北市中正區惠安街15-2號,25.029705,121.50664,1F,5F,62174.18432460938,-2.379050877768944,1326452.0
11650726,21-Dec,TPE,台北市大安區延吉街,大安區正聲里,190000,60,"550,000",,,一年,中檔裝潢,已辦,"25.0397190,121.5550880","25°02'23.0""N 121°33'18.3""E",106台北市大安區仁愛華園,25.039719,121.555088,1F,7F,44492.702678856185,-2.1408298717292773,3665399.0
11653069,21-Dec,TPE,台北市大安區忠孝東路四段,大安區光武里,58000,23,"550,000",,,一年,中檔裝潢,已辦,"25.0417728,121.5479889","25°02'30.4""N 121°32'52.8""E",106台北市大安區台5線99號太平洋建築物大廈,25.0417728,121.5479889,1F,7F,37131.21454223301,-1.4931504734489267,3643217.0
11639315,21-Dec,TPE,台北市內湖區內湖路一段711號,內湖區港墘里,88000,33,面議,3720.0,平面式停車位，費用另計,一年,簡易裝潢,已辦,"25.0783094,121.5767234","25°04'41.9""N 121°34'36.2""E",114台北市內湖區港墘路127巷6弄,25.0783094,121.5767234,1F,14F,9613.582377896171,-0.8184590318162618,2747906.0
11645619,21-Dec,TPE,台北市松山區復興北路229號,松山區松基里,130000,30,二個月,2000.0,,兩年,簡易裝潢,已辦,"25.0567597,121.5444424","25°03'24.3""N 121°32'40.0""E",105台北市松山區復興北路215號,25.0567597,121.5444424,1F,5F,21150.871349328656,-0.9991871032571265,2911446.0
11503478,21-Dec,TPE,台北市信義區虎林街443巷,信義區永吉里,42000,27,二個月,,,一年,中檔裝潢,已辦,"25.046142,121.578437","25°02'46.1""N 121°34'42.4""E",110台北市信義區永吉路443巷5弄6號,25.046142,121.578437,1F,4F,32744.43776827745,-1.7584067806151182,916899.0
11474967,21-Dec,TPE,台北市南港區南港路二段,南港區東新里,120000,144,二個月,4000.0,平面式停車位，已含租金內,兩年,簡易裝潢,已辦,"25.0551546,121.5970969","25°03'18.6""N 121°35'49.6""E",115台北市南港區東新里,25.0551546,121.5970969,1F,7F,30502.708206212865,-1.1662877432990548,2454543.0
11806018,21-Dec,TPE,台北市南港區忠孝東路六段108號,南港區萬福里,85000,41,二個月,3400.0,,一年,中檔裝潢,已辦,"25.047258,121.584485","25°02'50.1""N 121°35'04.2""E",115台北市南港區忠孝東路六段104號,25.047258,121.584485,1F,16F,40510.236810007176,-1.5706579682657502,1760559.0
11671081,21-Dec,TPE,台北市文山區景興路75號,文山區興福里,35000,15,面議,,,一年,簡易裝潢,已辦,"24.9971983,121.5458444","24°59'49.9""N 121°32'45.0""E",116台北市文山區興福里,24.9971983,121.5458444,1F,4F,50547.34540807121,-1.761245949766647,2080926.0
11708223,21-Dec,TPE,台北市大安區文昌街,大安區通化里,280000,61,二個月,,,3年,簡易裝潢,已辦,"25.0331624,121.5543904","25°01'59.4""N 121°33'15.8""E",106台北市大安區,25.0331624,121.5543904,整棟,3F,52598.05455926029,-0.7276535600304463,2422355.0
11771742,21-Dec,TPE,台北市信義區吳興街170巷1弄3號,信義區景勤里,59000,55,二個月,,,兩年,尚未裝潢,已辦,"25.0285610,121.5616430","25°01'42.8""N 121°33'41.9""E",110台北市信義區吳興街170巷1弄3號,25.028561,121.561643,1F,4F,21929.177812630744,-2.45021907184569,1330649.0
11702107,21-Dec,TPE,台北市士林區文林路,士林區仁勇里,138000,86,二個月,,,兩年,簡易裝潢,已辦,"25.0877030,121.5259280","25°05'15.7""N 121°31'33.3""E",111台北市士林區文林路87號,25.087703,121.525928,整棟,4F,31935.038004579543,-2.2569285235763585,1266108.0
11517036,21-Dec,TPE,台北市大安區忠孝東路四段205巷,大安區建安里,60000,13,二個月,,,一年,已辦,已辦,"25.0431780,121.5522260","25°02'35.4""N 121°33'08.0""E",106台北市大安區忠孝東路四段205巷29弄5號4樓,25.043178,121.552226,1F,4F,32731.53217965089,-1.9321270953113423,3039876.0
11528231,21-Dec,TPE,台北市文山區木新路三段,文山區樟新里,53000,46,二個月,,,一年,尚未裝潢,已辦,"24.9805460,121.5567760","24°58'50.0""N 121°33'24.4""E",116台北市文山區木新路三段,24.980546,121.556776,1F,5F,29144.12015966489,-1.3160095124291913,2580525.0
11803067,21-Dec,TPE,台北市信義區永吉路30巷,信義區興雅里,130000,13,面議,,,一年,簡易裝潢,已辦,"25.0416380,121.5686130","25°02'29.9""N 121°34'07.0""E",110台北市信義區,25.041638,121.568613,1F,4F,22399.06076647384,-2.131715641858293,2435957.0
11532693,21-Dec,TPE,台北市中正區懷寧街62號,中正區黎明里,58000,20,二個月,2000.0,,兩年,簡易裝潢,已辦,"25.0441009,121.5140891","25°02'38.8""N 121°30'50.7""E",100台北市中正區懷寧街55-51,25.0441009,121.5140891,1F,9F,5734.29678372022,0.5857702086999723,1631191.0
11651609,21-Dec,TPE,台北市中正區武昌街一段22巷,中正區光復里,70000,15,面議,,,一年,簡易裝潢,已辦,"25.0441676,121.5129476","25°02'39.0""N 121°30'46.6""E",100台北市中正區武昌街一段3號,25.0441676,121.5129476,1F,1F,12649.652578401554,-0.5278111110776547,1658650.0
11758284,21-Dec,TPE,台北市中正區羅斯福路三段244巷,中正區文盛里,50000,20,二個月,,,兩年,尚未裝潢,已辦,"25.0165400,121.5306540","25°00'59.5""N 121°31'50.4""E",100台北市中正區羅斯福路三段244巷14號,25.01654,121.530654,1F,4F,24170.67725848128,3.3676818985766133,1086607.0
11681613,21-Dec,TPE,台北市中正區金山北路3號,中正區梅花里,72000,12,面議,3600.0,,一年,簡易裝潢,已辦,"25.0431997,121.5296888","25°02'35.5""N 121°31'46.9""E",100台北市中正區金山南路一段,25.0431997,121.5296888,1F,14F,6926.62825598684,-1.1404555520498685,1922928.0
11694862,21-Dec,TPE,台北市士林區忠義街119號,士林區岩山里,70000,50,面議,,,一年,簡易裝潢,已辦,"25.10759,121.532812","25°06'27.3""N 121°31'58.1""E",111台北市士林區忠義街117號,25.10759,121.532812,1F,5F,6925.187168403978,-1.267856581946436,1570266.0
11535691,21-Dec,TPE,台北市文山區仙岩路,文山區興安里,58000,25,面議,,,兩年,中檔裝潢,已辦,"25.0001104,121.5503229","25°00'00.4""N 121°33'01.2""E",116台北市文山區興隆路二段96巷3號,25.0001104,121.5503229,1F,4F,29647.57398859009,-0.1362479136992315,3175320.0
11747377,21-Dec,TPE,台北市大同區延平北路二段129號,大同區延平里,57000,21,面議,600.0,,一年,簡易裝潢,已辦,"25.0581826,121.5123786","25°03'29.5""N 121°30'44.6""E",103台北市大同區歸綏街,25.0581826,121.5123786,1F,11F,45347.02320759156,-1.171617071394785,1338553.0
11666040,21-Dec,TPE,台北市大安區辛亥路一段,大安區大學里,75000,35,二個月,,,兩年,簡易裝潢,已辦,"25.0202230,121.5304390","25°01'12.8""N 121°31'49.6""E",106台北市大安區辛亥路一段,25.020223,121.530439,1F,5F,45612.20539650289,-0.2215433181810648,4643860.0
11567766,21-Dec,TPE,台北市大安區信義路二段174號,大安區永康里,380000,60,面議,,,3年,中檔裝潢,已辦,"25.033557,121.529254","25°02'00.8""N 121°31'45.3""E",106台北市大安區和平東路一段197號,25.033557,121.529254,1F,5F,31997.07455318371,-0.3879108995447892,2133014.0
11762527,21-Dec,TPE,台北市北投區立農街二段155號,北投區東華里,28000,250,面議,,平面式停車位，費用另計,兩年,高檔裝潢,已辦,"25.1199530,121.5144970","25°07'11.8""N 121°30'52.2""E",112台北市北投區立農街二段155-1號,25.119953,121.514497,整棟,4F,7447.99894009611,-0.1898716350371643,1650357.0
11858788,21-Dec,TPE,台北市文山區指南路一段30號,文山區木新里,88000,45,二個月,,,兩年,尚未裝潢,未辦,"24.987578,121.569567","24°59'15.3""N 121°34'10.4""E",116台北市文山區指南路一段32號,24.987578,121.569567,1F,2F,31773.63171322065,-1.430861300854458,3068587.0
11710729,21-Dec,TPE,台北市信義區松隆路205號,信義區四育里,120000,90,其他,,,一年,已辦,未辦,"25.0485070,121.5762530","25°02'54.6""N 121°34'34.5""E",110台北市信義區松隆路,25.048507,121.576253,1F,5F,33250.59985961397,-1.5779621615450286,1899428.0
11471525,21-Dec,TPE,台北市士林區文林路101巷22號,士林區仁勇里,60000,25,面議,,,一年,簡易裝潢,未辦,"25.0879246,121.5256046","25°05'16.5""N 121°31'32.2""E",111台北市士林區,25.0879246,121.5256046,1F,2F,31935.038004579543,-2.2569285235763585,1266108.0
11715407,21-Dec,TPE,台北市南港區研究院路一段99號,南港區新富里,432000,240,面議,,,一年,簡易裝潢,未辦,"25.0519772,121.6162338","25°03'07.1""N 121°36'58.4""E",115台北市南港區研究院路一段101巷9,25.0519772,121.6162338,1F,2F,22287.04804524885,-2.337074519703168,1321008.0
11668996,21-Dec,TPE,台北市大安區敦化南路一段252巷,大安區仁愛里,420000,58,二個月,3750.0,,一年,高檔裝潢,已辦,"25.0408517,121.5473362","25°02'27.1""N 121°32'50.4""E",106台北市大安區國泰一品大廈,25.0408517,121.5473362,1F,7F,24419.36184067723,-1.9434139324837687,4153950.0
11595059,21-Dec,TPE,台北市大安區羅斯福路二段,中正區板溪里,230000,137,二個月,3750.0,,一年,高檔裝潢,已辦,"25.0260573,121.5222542","25°01'33.8""N 121°31'20.1""E",100台北市中正區南昌路二段,25.0260573,121.5222542,1F,7F,34871.137382449204,-1.7469275714852313,1389956.0
11773877,21-Dec,TPE,台北市大安區永康街13巷,大安區永康里,168000,44,二個月,,,1月,高檔裝潢,已辦,"25.0317882,121.5290652","25°01'54.4""N 121°31'44.6""E",106台北市大安區永康街12巷3號,25.0317882,121.5290652,1F,7F,31997.07455318371,-0.3879108995447892,2133014.0
11669654,21-Dec,TPE,台北市大安區通化街,大安區臨江里,66500,11,二個月,,,一年,尚未裝潢,已辦,"25.0291195,121.5540619","25°01'44.8""N 121°33'14.6""E",106台北市大安區通化街,25.0291195,121.5540619,1F,5F,56280.66313386457,-1.5165162505399308,1309416.0
11556940,21-Dec,TPE,台北市大安區麗水街7巷1號,大安區永康里,170000,35,二個月,,,兩年,高檔裝潢,已辦,"25.0309900,121.5288460","25°01'51.6""N 121°31'43.9""E",106台北市大安區麗水街7巷,25.03099,121.528846,1F,1F,31997.07455318371,-0.3879108995447892,2133014.0
11829920,21-Dec,TPE,台北市中山區建國北路二段,中山區中央里,350000,120,"1,200,000",,,兩年,簡易裝潢,未辦,"25.0522680,121.5364554","25°03'08.2""N 121°32'11.2""E",10491台北市中山區建國北路二段8號,25.052268,121.5364554,整棟,3F,14986.753326120555,-1.4515914528251774,1610149.0
11163738,21-Dec,TPE,台北市信義區忠孝東路五段,信義區富台里,3580000,338,面議,,機械式停車位，已含租金內,5年,高檔裝潢,已辦,"25.0411374,121.5710800","25°02'28.1""N 121°34'15.9""E",11065台北市信義區忠孝東路五段269號1樓,25.0411374,121.57108,整棟,7F,39816.76760778728,-0.7362009135914189,1981177.0
11829925,21-Dec,TPE,台北市松山區八德路二段,松山區中崙里,110000,35,二個月,,,兩年,簡易裝潢,已辦,"25.0478100,121.5455360","25°02'52.1""N 121°32'43.9""E",105台北市松山區八德路二段漢陽實業大廈,25.04781,121.545536,1F,12F,50089.33954483317,-0.5742544086064487,2164630.0
11527248,21-Dec,TPE,台北市內湖區康樂街136巷30弄3號,內湖區東湖里,42000,30,面議,2020.0,,一年,已辦,已辦,"25.0712493,121.6170403","25°04'16.5""N 121°37'01.4""E",114台北市內湖區康樂街72巷17弄,25.0712493,121.6170403,1F,7F,51392.55385609748,-0.7371580017256463,2532485.0
11826636,21-Dec,TPE,台北市中山區南京東路三段256巷28弄2號,中山區力行里,68000,35,二個月,100.0,,兩年,中檔裝潢,已辦,"25.0488060,121.5439430","25°02'55.7""N 121°32'38.2""E",10491台北市中山區復興北路48號8F,25.048806,121.543943,1F,5F,21085.12931049232,0.0006004314568652,3990206.0
11574881,21-Dec,TPE,台北市中山區林森北路,中山區正得里,65000,20,二個月,1440.0,,一年,簡易裝潢,已辦,"25.0499523,121.5246463","25°02'59.8""N 121°31'28.7""E",10491台北市中山區林森北路,25.0499523,121.5246463,1F,12F,24953.495137385096,-0.8080099136045386,1859218.0
11557548,21-Dec,TPE,台北市士林區基河路350號,士林區福佳里,55000,25,二個月,3001.0,,兩年,中檔裝潢,已辦,"25.0946077,121.5187573","25°05'40.6""N 121°31'07.5""E",111台北市士林區基河路350-1號,25.0946077,121.5187573,1F,8F,15267.504851394611,-1.1736740378683366,3094444.0
11842618,21-Dec,TPE,台北市中正區杭州南路二段,中正區新營里,210000,86,面議,,,一年,簡易裝潢,已辦,"25.0285078,121.5218391","25°01'42.6""N 121°31'18.6""E",106台北市大安區杭州南路二段95號,25.0285078,121.5218391,整棟,3F,62552.746263419474,-1.2600844087513754,5043797.0
11775067,21-Dec,TPE,台北市信義區基隆路一段,信義區新仁里,88000,22,面議,920.0,,3年,尚未裝潢,已辦,"25.0420913,121.5647226","25°02'31.5""N 121°33'53.0""E",110台北市信義區基隆路一段188-1號,25.0420913,121.5647226,1F,12F,5633.089548834146,-1.6528949685268302,1601497.0
11733878,21-Dec,TPE,台北市信義區吳興街284巷3號,信義區雙和里,45000,23,二個月,,,一年,尚未裝潢,已辦,"25.0252230,121.5628199","25°01'30.8""N 121°33'46.2""E",110台北市信義區吳興街284巷18弄24,25.025223,121.5628199,1F,5F,27264.627039757608,-1.6152835712993123,2721242.0
11467895,21-Dec,TPE,台北市信義區忠孝東路四段,信義區興雅里,1400000,169,面議,20280.0,,一年,簡易裝潢,已辦,"25.0412196,121.5645221","25°02'28.4""N 121°33'52.3""E",110台北市信義區忠孝東路,25.0412196,121.5645221,1F,17F,22399.06076647384,-2.131715641858293,2435957.0
11518231,21-Dec,TPE,台北市南港區重陽路,南港區重陽里,58000,38,二個月,2100.0,,一年,高檔裝潢,已辦,"25.0571330,121.5981516","25°03'25.7""N 121°35'53.4""E",115台北市南港區重陽里,25.057133,121.5981516,1F,7F,16489.42792447502,-1.4608330406142698,3541690.0
11592985,21-Dec,TPE,台北市內湖區成功路四段,內湖區內湖里,180000,31,二個月,3169.0,,兩年,尚未裝潢,已辦,"25.0812640,121.5912230","25°04'52.6""N 121°35'28.4""E",114台北市內湖區成功路四段26號,25.081264,121.591223,1F,12F,39958.036112448775,0.6199535700751675,2799230.0
11452705,21-Dec,TPE,台北市松山區饒河街,松山區慈祐里,100000,34,二個月,,,一年,簡易裝潢,已辦,"25.0499664,121.5747604","25°02'59.9""N 121°34'29.1""E",105台北市松山區八德路四段,25.0499664,121.5747604,1F,5F,27650.057474992504,-0.3575180954236886,2393420.0
11712879,21-Dec,TPE,台北市大安區忠孝東路四段,大安區光武里,450000,50,面議,,,一年,簡易裝潢,已辦,"25.0419233,121.5487541","25°02'30.9""N 121°32'55.5""E",106台北市大安區光武里,25.0419233,121.5487541,1F,12F,37131.21454223301,-1.4931504734489267,3643217.0
11688023,21-Dec,TPE,台北市信義區忠孝東路五段,信義區敦厚里,1000000,192,面議,,,兩年,高檔裝潢,已辦,"25.0421270,121.5682142","25°02'31.7""N 121°34'05.6""E",110台北市信義區永吉路30巷158弄,25.042127,121.5682142,1F,13F,46201.67226470378,-1.4881146218298578,2337411.0
11579129,21-Dec,TPE,台北市大安區金山南路二段,大安區永康里,120000,25,"360,000",,,3年,高檔裝潢,已辦,"25.031822,121.5270292","25°01'54.6""N 121°31'37.3""E",106台北市大安區金山南路二段69號,25.031822,121.5270292,1F,6F,31997.07455318371,-0.3879108995447892,2133014.0
11672593,21-Dec,TPE,台北市大安區信義路二段,大安區永康里,380000,60,面議,,,3年,簡易裝潢,已辦,"25.033557,121.529254","25°02'00.8""N 121°31'45.3""E",106台北市大安區和平東路一段197號,25.033557,121.529254,1F,5F,31997.07455318371,-0.3879108995447892,2133014.0
11738487,21-Dec,TPE,台北市大安區泰順街60巷23號,大安區龍泉里,73000,31,二個月,,,一年,簡易裝潢,已辦,"25.0225270,121.5296324","25°01'21.1""N 121°31'46.7""E",106台北市大安區泰順街60巷,25.022527,121.5296324,1F,4F,54874.388741148825,1.4411007152942634,2643091.0
11853696,21-Dec,TPE,台北市信義區忠孝東路五段,信義區廣居里,57800,40,二個月,,平面式停車位，已含租金內,兩年,簡易裝潢,已辦,"25.0409058,121.5716577","25°02'27.3""N 121°34'18.0""E",110台北市信義區忠孝東路,25.0409058,121.5716577,1F,4F,46898.13343764388,-1.934711930954099,3566973.0
11750927,21-Dec,TPE,台北市大同區長安西路,大同區建功里,98000,22,面議,,,兩年,簡易裝潢,已辦,"25.0514328,121.5153467","25°03'05.2""N 121°30'55.3""E",103台北市大同區,25.0514328,121.5153467,1F,4F,38823.133107570415,-0.8546355751181641,1634602.0
11533341,21-Dec,TPE,台北市大安區忠孝東路三段,大安區義村里,158000,100,二個月,2000.0,平面式停車位，已含租金內,兩年,簡易裝潢,已辦,"25.0413869,121.5410740","25°02'29.0""N 121°32'27.9""E",106台北市大安區正義國宅3座,25.0413869,121.541074,1F,14F,22014.06134953759,-1.7238245189539942,3338332.0
11857455,21-Dec,TPE,台北市信義區和平東路三段369號,信義區黎忠里,58000,40,面議,,,一年,尚未裝潢,已辦,"25.020202,121.5572317","25°01'12.7""N 121°33'26.0""E",110台北市信義區和平東路三段369號,25.020202,121.5572317,1F,4F,35135.89458994619,-1.7953005739919388,1624286.0
11636630,21-Dec,TPE,台北市大安區敦化南路一段,松山區敦化里,1070000,181,面議,,,3年,簡易裝潢,已辦,"25.0451565,121.5490565","25°02'42.6""N 121°32'56.6""E",105台北市松山區敦化南路1段5888號,25.0451565,121.5490565,1F,23F,52587.13943671021,-1.372783493489571,3483634.0
11756962,21-Dec,TPE,台北市中正區羅斯福路四段64號,中正區水源里,170000,13,面議,,,一年,中檔裝潢,已辦,"25.0145760,121.5341900","25°00'52.5""N 121°32'03.1""E",100台北市中正區公館,25.014576,121.53419,1F,4F,7938.931950934741,-0.4441672418021181,1177893.0
11836405,21-Dec,TPE,台北市萬華區武昌街二段,萬華區西門里,160000,25,二個月,,,兩年,中檔裝潢,已辦,"25.0424485,121.5071905","25°02'32.8""N 121°30'25.9""E",108台北市萬華區成都路12號,25.0424485,121.5071905,1F,4F,26509.87919140661,-1.659900826861464,1282956.0
11621649,21-Dec,TPE,台北市大安區信義路四段,大安區仁慈里,400000,440,二個月,,,兩年,中檔裝潢,已辦,"25.0346646,121.5453446","25°02'04.8""N 121°32'43.2""E",106台北市大安區大安路一段206巷,25.0346646,121.5453446,1F,4F,47650.26670549039,-0.1075774855597029,3559340.0
11681852,21-Dec,TPE,台北市大安區忠孝東路三段,大安區誠安里,600000,193,面議,,,兩年,簡易裝潢,已辦,"25.0425118,121.5424579","25°02'33.0""N 121°32'32.9""E",106台北市大安區誠安里,25.0425118,121.5424579,1F,13F,36865.63907497207,-1.6982506421758063,1906932.0
11687098,21-Dec,TPE,台北市大安區敦化南路一段,松山區敦化里,800000,182,面議,,,3年,簡易裝潢,已辦,"25.0451565,121.5490565","25°02'42.6""N 121°32'56.6""E",105台北市松山區敦化南路1段5888號,25.0451565,121.5490565,1F,23F,52587.13943671021,-1.372783493489571,3483634.0
11757028,21-Dec,TPE,台北市松山區復興南路一段11號,中山區埤頭里,80000,22,二個月,,,三個月,高檔裝潢,已辦,"25.0465034,121.5439018","25°02'47.4""N 121°32'38.1""E",105台北市松山區復興南路一段27號6號,25.0465034,121.5439018,1F,4F,18172.88568629984,-2.5247991176081896,1403888.0
11571696,21-Dec,TPE,台北市信義區忠孝東路五段15巷,信義區興雅里,270000,120,二個月,1000.0,,3年,中檔裝潢,已辦,"25.0411384,121.5648600","25°02'28.1""N 121°33'53.5""E",110台北市信義區忠孝東路,25.0411384,121.56486,1F,7F,22399.06076647384,-2.131715641858293,2435957.0
11819901,21-Dec,TPE,台北市中正區博愛路,中正區光復里,110000,38,二個月,,,一年,簡易裝潢,已辦,"25.0435469,121.511394","25°02'36.8""N 121°30'41.0""E",100台北市中正區博愛路118號,25.0435469,121.511394,1F,3F,12649.652578401554,-0.5278111110776547,1658650.0
11469055,21-Dec,TPE,台北市信義區忠孝東路五段,信義區富台里,200000,190,二個月,,,一年,簡易裝潢,已辦,"25.0414504,121.5753630","25°02'29.2""N 121°34'31.3""E",110台北市信義區忠孝東路五段423巷4號,25.0414504,121.575363,1F,3F,39816.76760778728,-0.7362009135914189,1981177.0
11470388,21-Dec,TPE,台北市大安區延吉街160巷,大安區車層里,110000,30,二個月,,,一年,尚未裝潢,已辦,"25.0393010,121.5542310","25°02'21.5""N 121°33'15.2""E",106台北市大安區延吉街160巷1號,25.039301,121.554231,1F,7F,52235.02986114866,-1.1391250192385924,4043221.0
11596948,21-Dec,TPE,台北市萬華區華西街,萬華區青山里,27000,27,二個月,,,一年,簡易裝潢,已辦,"25.0392234,121.4984947","25°02'21.2""N 121°29'54.6""E",108台北市萬華區華西街186-138,25.0392234,121.4984947,1F,5F,16736.810564051786,-0.4137982593268141,1385419.0
11719181,21-Dec,TPE,台北市萬華區昆明街,萬華區西門里,80000,20,二個月,,,一年,簡易裝潢,已辦,"25.0424805,121.5048370","25°02'32.9""N 121°30'17.4""E",108台北市萬華區昆明街95號,25.0424805,121.504837,1F,5F,26509.87919140661,-1.659900826861464,1282956.0
11717376,21-Dec,TPE,台北市松山區民生東路四段,松山區精忠里,85000,48,二個月,,,兩年,簡易裝潢,已辦,"25.0584022,121.5500472","25°03'30.3""N 121°33'00.2""E",105台北市松山區民生東路四段55巷,25.0584022,121.5500472,1F,4F,2017.1525851305707,-0.2587678637916646,2562417.0
11845731,21-Dec,TPE,台北市中山區敬業二路,中山區成功里,430000,79,二個月,22210.0,平面式停車位，費用另計,兩年,尚未裝潢,已辦,"25.0811056,121.5535376","25°04'52.0""N 121°33'12.7""E",10491台北市中山區敬業一路36巷13-3,25.0811056,121.5535376,1F,17F,10693.122623534107,-1.1796330089498022,5679811.0
8766470,21-Dec,TPE,台北市大安區羅斯福路三段,大安區古風里,88000,15,面議,500.0,,一年,中檔裝潢,已辦,"25.0211400,121.5280520","25°01'16.1""N 121°31'41.0""E",106台北市大安區富豪名廈大樓,25.02114,121.528052,1F,12F,40344.58381228658,-0.221826238101519,3005896.0
11782777,21-Dec,TPE,台北市萬華區武昌街二段,萬華區萬壽里,450000,80,"1,350,000",,,兩年,中檔裝潢,已辦,"25.0446145,121.5071538","25°02'40.6""N 121°30'25.8""E",108台北市萬華區武昌街二段48-1號,25.0446145,121.5071538,整棟,4F,18289.4591152021,-2.330547523226419,1136466.0
11736549,21-Dec,TPE,台北市松山區民生東路五段,松山區新東里,168000,137,二個月,,,兩年,簡易裝潢,已辦,"25.0594350,121.5669040","25°03'34.0""N 121°34'00.9""E",105台北市松山區民生東路五段,25.059435,121.566904,1F,7F,14706.411447765093,-1.189025362175992,2070508.0
10916907,21-Dec,TPE,台北市內湖區瑞光路8號,內湖區港墘里,380000,200,面議,13000.0,平面式停車位，費用另計,一年,中檔裝潢,已辦,"25.0781417,121.5730994","25°04'41.3""N 121°34'23.2""E",114台北市內湖區瑞光路393巷,25.0781417,121.5730994,1F,8F,9613.582377896171,-0.8184590318162618,2747906.0
11707477,21-Dec,TPE,台北市信義區忠孝東路五段71巷,信義區興雅里,160000,34,二個月,,,一年,簡易裝潢,已辦,"25.0418537,121.5672102","25°02'30.7""N 121°34'02.0""E",110台北市信義區忠孝東路五段71巷6號,25.0418537,121.5672102,1F,5F,22399.06076647384,-2.131715641858293,2435957.0
11452338,21-Dec,TPE,台北市信義區忠孝東路五段790巷,信義區松光里,68000,73,二個月,500.0,平面式停車位，已含租金內,兩年,簡易裝潢,已辦,"25.0423378,121.5809248","25°02'32.4""N 121°34'51.3""E",110台北市信義區林口街,25.0423378,121.5809248,1F,7F,44306.03221211958,-1.4008870382433258,1907779.0
11500681,21-Dec,TPE,台北市中山區復興北路,中山區江寧里,100000,90,"300,000",1200.0,平面式停車位，已含租金內,兩年,簡易裝潢,已辦,"25.0617697,121.5440132","25°03'42.4""N 121°32'38.5""E",10491台北市中山區復興北路402巷,25.0617697,121.5440132,1F,18F,39849.56759481466,-1.395183501217382,3332532.0
11797833,21-Dec,TPE,台北市萬華區環河南路三段,萬華區保德里,55000,30,二個月,,,一年,尚未裝潢,已辦,"25.0204954,121.4928071","25°01'13.8""N 121°29'34.1""E",108台北市萬華區環河南路三段241號,25.0204954,121.4928071,1F,7F,45692.15832226664,-3.101758630644857,1170937.0
11829909,21-Dec,TPE,台北市大安區瑞安街23巷,大安區住安里,88000,42,面議,,,兩年,簡易裝潢,已辦,"25.0310442,121.5448454","25°01'51.8""N 121°32'41.4""E",106台北市大安區瑞安街23巷,25.0310442,121.5448454,1F,4F,37166.86616201101,-2.460769920344659,2335518.0
11839718,21-Dec,TPE,台北市北投區中央北路三段,北投區桃源里,42000,56,二個月,,,一年,中檔裝潢,未辦,"25.1379855,121.4843983","25°08'16.8""N 121°29'03.8""E",112台北市北投區中央北路三段90號,25.1379855,121.4843983,1F,5F,5070.704974422276,-1.6217949808627008,2059290.0
11749046,21-Dec,TPE,台北市中山區中山北路二段,中山區民安里,528000,100,面議,,,3年,中檔裝潢,已辦,"25.0521727,121.5214090","25°03'07.8""N 121°31'17.1""E",10491台北市中山區南京西路12號,25.0521727,121.521409,1F,4F,19806.234806991262,-1.4481974642719977,1982235.0
11654837,21-Dec,TPE,台北市松山區南京東路五段,松山區新聚里,370000,200,面議,,,3年,簡易裝潢,已辦,"25.0509198,121.5659988","25°03'03.3""N 121°33'57.6""E",105台北市松山區南京東路五段234之3號,25.0509198,121.5659988,1F,3F,52762.67911817818,-1.7180853774011684,3373427.0
11664699,21-Dec,TPE,台北市大安區忠孝東路四段,大安區華聲里,1100000,105,面議,,,一年,中檔裝潢,已辦,"25.0425295,121.5556643","25°02'33.1""N 121°33'20.4""E",106台北市大安區延吉街131巷,25.0425295,121.5556643,1F,12F,30932.354720605304,-1.0671675087595922,2199569.0
11712237,21-Dec,TPE,台北市大安區敦化南路二段,大安區群賢里,290000,75,面議,,,3年,高檔裝潢,已辦,"25.0253337,121.5474781","25°01'31.2""N 121°32'50.9""E",106台北市大安區和平東路三段1巷1號,25.0253337,121.5474781,1F,16F,40099.32584185052,-1.4901884547768418,3164367.0
8672764,21-Dec,TPE,台北市大安區仁愛路四段151巷12號,大安區建倫里,65000,11,面議,552.0,,兩年,已辦,已辦,"25.0384466,121.5509091","25°02'18.4""N 121°33'03.3""E",106台北市大安區安和路一段41號,25.0384466,121.5509091,1F,6F,37710.81747880526,-0.986778955176056,4386578.0
11711160,21-Dec,TPE,台北市文山區指南路一段,文山區木新里,88000,45,二個月,,,一年,尚未裝潢,已辦,"24.9875605,121.5695363","24°59'15.2""N 121°34'10.3""E",116台北市文山區指南路一段28號,24.9875605,121.5695363,1F,2F,31773.63171322065,-1.430861300854458,3068587.0
11835762,21-Dec,TPE,台北市大同區天水路,大同區建功里,43000,29,二個月,3200.0,,一年,簡易裝潢,已辦,"25.0534625,121.5137561","25°03'12.5""N 121°30'49.5""E",103台北市大同區重慶北路一段,25.0534625,121.5137561,1F,14F,38823.133107570415,-0.8546355751181641,1634602.0
11567226,21-Dec,TPE,台北市中山區中山北路三段,中山區晴光里,84800,51,面議,,,一年,尚未裝潢,已辦,"25.0655124,121.5246272","25°03'55.8""N 121°31'28.7""E",10491台北市中山區雙城街,25.0655124,121.5246272,1F,3F,49924.21776174035,-0.5847909863359331,2439490.0
11755333,21-Dec,TPE,台北市中山區建國北路二段64巷,中山區中央里,55000,35,二個月,6500.0,,一年,簡易裝潢,已辦,"25.0537231,121.5356459","25°03'13.4""N 121°32'08.3""E",10491台北市中山區伊通街125巷,25.0537231,121.5356459,1F,12F,14986.753326120555,-1.4515914528251774,1610149.0
11711476,21-Dec,TPE,台北市中山區長春路,中山區朱馥里,130000,40,二個月,1500.0,,一年,尚未裝潢,已辦,"25.0556124,121.5393505","25°03'20.2""N 121°32'21.7""E",10491台北市中山區合江街41巷,25.0556124,121.5393505,1F,12F,32747.42452565325,-1.5545287660520213,2280971.0
11565182,21-Dec,TPE,台北市中正區仁愛路二段26號,中正區文北里,180000,66,面議,,,一年,簡易裝潢,已辦,"25.0380370,121.5268520","25°02'16.9""N 121°31'36.7""E",100台北市中正區仁愛路二段26號7樓,25.038037,121.526852,1F,7F,33351.541839451034,-0.4610885914708558,5198472.0
11481954,21-Dec,TPE,台北市大安區信義路四段199巷3號,大安區敦煌里,400000,128,二個月,22203.0,,一年,簡易裝潢,已辦,"25.0334920,121.5537015","25°02'00.6""N 121°33'13.3""E",106台北市大安區敦煌里,25.033492,121.5537015,1F,14F,48961.44810521408,-1.0417644500814691,3637929.0
11800831,21-Dec,TPE,台北市信義區林口街,信義區大道里,460000,780,面議,,,一年,簡易裝潢,已辦,"25.0410190,121.5809210","25°02'27.7""N 121°34'51.3""E",110台北市信義區林口街188號,25.041019,121.580921,1F,12F,50363.41494977358,-1.2439227409121698,2340995.0
11647452,21-Dec,TPE,台北市大同區承德路二段36號,大同區光能里,70000,29,二個月,1580.0,,一年,簡易裝潢,已辦,"25.0543844,121.5183806","25°03'15.8""N 121°31'06.2""E",103台北市大同區光能里,25.0543844,121.5183806,1F,12F,43157.00380037817,-0.956768936386195,1841575.0
11596941,21-Dec,TPE,台北市萬華區華西街,萬華區青山里,30000,28,二個月,,,一年,簡易裝潢,已辦,"25.0392234,121.4984947","25°02'21.2""N 121°29'54.6""E",108台北市萬華區華西街186-138,25.0392234,121.4984947,1F,4F,16736.810564051786,-0.4137982593268141,1385419.0
11844694,21-Dec,TPE,台北市大安區羅斯福路三段247號,中正區文盛里,100000,22,二個月,2200.0,,兩年,高檔裝潢,已辦,"25.0185101,121.5293408","25°01'06.6""N 121°31'45.6""E",100台北市中正區羅斯福路三段240巷7弄18號,25.0185101,121.5293408,1F,12F,24170.67725848128,3.3676818985766133,1086607.0
11781738,21-Dec,TPE,台北市大安區信義路三段,大安區和安里,150000,30,面議,,,一年,簡易裝潢,已辦,"25.0336098,121.5412350","25°02'01.0""N 121°32'28.5""E",106台北市大安區,25.0336098,121.541235,1F,12F,23900.24566191586,-1.5967523509311004,4353291.0
11617578,21-Dec,TPE,台北市內湖區文德路,內湖區瑞陽里,375000,249,面議,,平面式停車位，費用另計,兩年,簡易裝潢,已辦,"25.0784357,121.5823978","25°04'42.4""N 121°34'56.6""E",114台北市內湖區文德路90號,25.0784357,121.5823978,1F,17F,39318.68889969509,-1.8311212158707828,3317689.0
11859942,21-Dec,TPE,台北市大安區敦化南路二段,大安區住安里,510000,200,面議,25000.0,,一年,尚未裝潢,已辦,"25.0333177,121.5486016","25°01'59.9""N 121°32'55.0""E",106台北市大安區信義路四段,25.0333177,121.5486016,1F,12F,37166.86616201101,-2.460769920344659,2335518.0
11650544,21-Dec,TPE,台北市大安區基隆路二段144巷,大安區臨江里,65000,28,二個月,,,兩年,簡易裝潢,已辦,"25.0283440,121.5561870","25°01'42.0""N 121°33'22.3""E",106台北市大安區基隆路二段144巷5號,25.028344,121.556187,1F,4F,56280.66313386457,-1.5165162505399308,1309416.0
11703351,21-Dec,TPE,台北市中山區八德路二段,中山區朱崙里,390000,216,面議,,,兩年,簡易裝潢,已辦,"25.0468025,121.5402527","25°02'48.5""N 121°32'24.9""E",10491台北市中山區八德路二段,25.0468025,121.5402527,1F,5F,23137.60128868763,0.447031917993194,1401459.0
11648686,21-Dec,TPE,台北市中山區長安東路二段,中山區興亞里,105468,55,面議,,,兩年,簡易裝潢,已辦,"25.0486070,121.5317780","25°02'55.0""N 121°31'54.4""E",10491台北市中山區長安東路二段,25.048607,121.531778,1F,2F,21968.7477809728,0.0314843270238155,2835061.0
11782551,21-Dec,TPE,台北市中山區松江路,中山區朱園里,131835,36,面議,,,兩年,簡易裝潢,已辦,"25.0485410,121.5332570","25°02'54.8""N 121°31'59.7""E",10491台北市中山區松江路61-1號,25.048541,121.533257,1F,4F,16690.778379273743,-0.5000985576377885,2769267.0
11626370,21-Dec,TPE,台北市松山區南京東路五段,松山區安平里,250000,94,面議,,,兩年,中檔裝潢,已辦,"25.0515266,121.5667101","25°03'05.5""N 121°34'00.2""E",105台北市松山區南京東路五段315號,25.0515266,121.5667101,1F,3F,39713.64129092309,-0.951129010217396,3056857.0
11683382,21-Dec,TPE,台北市萬華區西寧南路,萬華區萬壽里,180000,18,面議,,,兩年,簡易裝潢,已辦,"25.0443610,121.5064851","25°02'39.7""N 121°30'23.4""E",108台北市萬華區阿曼TiT,25.044361,121.5064851,1F,3F,18289.4591152021,-2.330547523226419,1136466.0
11731515,21-Dec,TPE,台北市萬華區武昌街二段,萬華區福星里,200000,35,二個月,,,兩年,中檔裝潢,已辦,"25.0459307,121.5066069","25°02'45.4""N 121°30'23.8""E",108台北市萬華區漢口街二段53號,25.0459307,121.5066069,1F,5F,23216.4529628721,-1.624845983796212,1612439.0
11834843,21-Dec,TPE,台北市中正區館前路,中正區黎明里,3600000,568,面議,,,5年,中檔裝潢,已辦,"25.0462588,121.5175223","25°02'46.5""N 121°31'03.1""E",10041台北市中正區忠孝西路1段49號,25.0462588,121.5175223,1F,12F,5734.29678372022,0.5857702086999723,1631191.0
11799613,21-Dec,TPE,台北市大同區承德路三段,中山區集英里,100000,33,二個月,,,一年,簡易裝潢,已辦,"25.0620044,121.5200841","25°03'43.2""N 121°31'12.3""E",10491台北市中山區天祥路60巷,25.0620044,121.5200841,1F,7F,20744.09637439897,-0.5990158578695226,2900878.0
11825572,21-Dec,TPE,台北市大同區迪化街一段,大同區大有里,150000,75,面議,,,兩年,高檔裝潢,已辦,"25.0591717,121.5088016","25°03'33.0""N 121°30'31.7""E",103台北市大同區環河北路一段,25.0591717,121.5088016,整棟,2F,19808.74619969644,-2.467417164556496,1700977.0
11558520,21-Dec,TPE,台北市內湖區行愛路,內湖區湖元里,300000,299,面議,,平面式停車位，費用另計,兩年,簡易裝潢,已辦,"25.0625597,121.5824982","25°03'45.2""N 121°34'57.0""E",114台北市內湖區行愛路,25.0625597,121.5824982,1F,8F,2354.8240154726204,-1.6090779492294278,2436938.0
11656000,21-Dec,TPE,台北市內湖區新湖二路,內湖區湖元里,125000,101,面議,,平面式停車位，費用另計,兩年,簡易裝潢,已辦,"25.0630299,121.5797974","25°03'46.9""N 121°34'47.3""E",114台北市內湖區新湖二路188號,25.0630299,121.5797974,1F,6F,2354.8240154726204,-1.6090779492294278,2436938.0
11649439,21-Dec,TPE,台北市中山區南京東路三段,中山區復華里,145000,48,面議,,,兩年,簡易裝潢,已辦,"25.0521328,121.5376127","25°03'07.7""N 121°32'15.4""E","號11樓, No. 9南京東路三段中山區台北市10491",25.0521328,121.5376127,1F,12F,21224.91595284512,-0.4143777498369398,2723005.0
11759536,21-Dec,TPE,台北市大安區延吉街137巷,大安區華聲里,130000,27,二個月,,,3年,簡易裝潢,已辦,"25.0419159,121.5551605","25°02'30.9""N 121°33'18.6""E",106台北市大安區延吉街137巷,25.0419159,121.5551605,1F,5F,30932.354720605304,-1.0671675087595922,2199569.0
11687132,21-Dec,TPE,台北市大安區忠孝東路三段,大安區民輝里,600000,290,二個月,,,一年,簡易裝潢,已辦,"25.0424247,121.5375949","25°02'32.7""N 121°32'15.3""E",106台北市大安區建國南路一段105號,25.0424247,121.5375949,1F,13F,19754.7216469443,-1.6745114149710656,4878840.0
11693407,21-Dec,TPE,台北市中山區錦州街,中山區集英里,200000,103,二個月,,,一年,尚未裝潢,已辦,"25.0625646,121.5203858","25°03'45.2""N 121°31'13.4""E",10491台北市中山區民權西路56巷2-4,25.0625646,121.5203858,1F,8F,20744.09637439897,-0.5990158578695226,2900878.0
11683412,21-Dec,TPE,台北市中山區錦州街,中山區新生里,45000,26,二個月,,,一年,簡易裝潢,已辦,"25.0609870,121.5293843","25°03'39.6""N 121°31'45.8""E",10491台北市中山區新生北路二段137巷,25.060987,121.5293843,1F,4F,34669.5193670163,-2.066216074761569,1732689.0
11726871,21-Dec,TPE,台北市士林區福林路,士林區福志里,37000,15,二個月,,,一年,尚未裝潢,未辦,"25.0971579,121.5328610","25°05'49.8""N 121°31'58.3""E",111台北市士林區福林路183號,25.0971579,121.532861,1F,4F,21324.20312140182,-1.1336389895695889,3534176.0
11305863,21-Dec,TPE,台北市中山區錦州街119號,中山區中庄里,44268,25,二個月,,,一年,尚未裝潢,已辦,"25.0604590,121.5287230","25°03'37.7""N 121°31'43.4""E",10491台北市中山區錦州街121-2號,25.060459,121.528723,1F,4F,34199.34850344049,-1.879026538898243,1857272.0
11699177,21-Dec,TPE,台北市中山區松江路100巷,中山區興亞里,161905,60,面議,,,兩年,簡易裝潢,已辦,"25.050931,121.5308788","25°03'03.4""N 121°31'51.2""E",10491台北市中山區松江路100巷,25.050931,121.5308788,1F,6F,21968.7477809728,0.0314843270238155,2835061.0
11781524,21-Dec,TPE,台北市內湖區成功路二段,內湖區湖興里,55000,60,面議,,,一年,尚未裝潢,已辦,"25.067422,121.590957","25°04'02.7""N 121°35'27.5""E",114台北市內湖區成功路二段223號,25.067422,121.590957,1F,1F,15753.51245015254,-1.325484516082668,3030592.0
11826988,21-Dec,TPE,台北市中正區延平南路,中正區光復里,68000,18,二個月,,,一年,簡易裝潢,已辦,"25.0460504,121.5109107","25°02'45.8""N 121°30'39.3""E",100台北市中正區博愛路,25.0460504,121.5109107,1F,9F,12649.652578401554,-0.5278111110776547,1658650.0
11747127,21-Dec,TPE,台北市中山區林森北路,中山區正得里,230000,78,面議,,,一年,簡易裝潢,已辦,"25.0509243,121.5247965","25°03'03.3""N 121°31'29.3""E",10491台北市中山區中山北路一段121巷,25.0509243,121.5247965,1F,14F,24953.495137385096,-0.8080099136045386,1859218.0
11751068,21-Dec,TPE,台北市大安區敦化南路一段187巷,大安區建安里,125000,35,二個月,,,一年,簡易裝潢,已辦,"25.0426030,121.5526300","25°02'33.4""N 121°33'09.5""E",106台北市大安區敦化南路一段187巷,25.042603,121.55263,1F,4F,32731.53217965089,-1.9321270953113423,3039876.0
11826997,21-Dec,TPE,台北市中山區雙城街19巷,中山區晴光里,50000,60,二個月,,,一年,簡易裝潢,已辦,"25.0653220,121.5250860","25°03'55.2""N 121°31'30.3""E",10491台北市中山區雙城街19巷,25.065322,121.525086,1F,7F,49924.21776174035,-0.5847909863359331,2439490.0
11851309,21-Dec,TPE,台北市大安區建國南路一段44巷,大安區民輝里,55000,30,二個月,,平面式停車位，已含租金內,一年,簡易裝潢,已辦,"25.0442160,121.5354820","25°02'39.2""N 121°32'07.7""E",106台北市大安區建國南路一段44巷15號,25.044216,121.535482,1F,5F,19754.7216469443,-1.6745114149710656,4878840.0
11623706,21-Dec,TPE,台北市信義區松德路25巷,信義區國業里,80000,62,二個月,800.0,,一年,簡易裝潢,已辦,"25.0386925,121.5775528","25°02'19.3""N 121°34'39.2""E",110台北市信義區松德路25巷7號,25.0386925,121.5775528,1F,14F,86623.26840919367,-1.4562667325212608,3161009.0
11588652,21-Dec,TPE,台北市內湖區瑞光路112巷,內湖區寶湖里,81744,68,二個月,8174.0,平面式停車位，費用另計,一年,簡易裝潢,已辦,"25.0725555,121.5814335","25°04'21.2""N 121°34'53.2""E",114台北市內湖區湖興里,25.0725555,121.5814335,1F,6F,9238.35691581695,2.5325426847264394,7100735.0
11786220,21-Dec,TPE,台北市內湖區陽光街,內湖區湖元里,128250,71,面議,11186.0,平面式停車位，費用另計,兩年,簡易裝潢,已辦,"25.0727320,121.5770809","25°04'21.8""N 121°34'37.5""E",114台北市內湖區陽光街365巷,25.072732,121.5770809,1F,8F,2354.8240154726204,-1.6090779492294278,2436938.0
11653245,21-Dec,TPE,台北市中山區敬業一路,中山區成功里,158888,64,二個月,9711.0,,一年,簡易裝潢,已辦,"25.0804726,121.5531567","25°04'49.7""N 121°33'11.4""E",10491台北市中山區樂群二路55號,25.0804726,121.5531567,1F,8F,10693.122623534107,-1.1796330089498022,5679811.0
11747066,21-Dec,TPE,台北市內湖區新湖三路,內湖區湖元里,259100,207,二個月,12436.0,平面式停車位，費用另計,兩年,簡易裝潢,已辦,"25.0660359,121.5816277","25°03'57.7""N 121°34'53.9""E",114台北市內湖區新湖三路286號,25.0660359,121.5816277,1F,6F,2354.8240154726204,-1.6090779492294278,2436938.0
11833684,21-Dec,TPE,台北市大安區安和路二段189巷,大安區全安里,130000,48,二個月,4000.0,,一年,簡易裝潢,已辦,"25.0269851,121.5506721","25°01'37.2""N 121°33'02.4""E",106台北市大安區安和路二段189巷,25.0269851,121.5506721,1F,5F,33432.977314011354,-1.221863022742934,2823065.0
11665819,21-Dec,TPE,台北市內湖區新湖一路,內湖區湖元里,412800,258,二個月,38700.0,平面式停車位，費用另計,一年,簡易裝潢,已辦,"25.0635822,121.5842258","25°03'48.9""N 121°35'03.2""E",114台北市內湖區新湖一路339號,25.0635822,121.5842258,1F,8F,2354.8240154726204,-1.6090779492294278,2436938.0
11545270,21-Dec,TPE,台北市信義區光復南路,大安區光信里,180000,83,二個月,9967.0,,一年,簡易裝潢,已辦,"25.0350547,121.5570987","25°02'06.2""N 121°33'25.6""E",106台北市大安區光復南路,25.0350547,121.5570987,1F,15F,57255.34162721282,-1.347133175535845,4260737.0
11558281,21-Dec,TPE,台北市大安區敦化南路277號,大安區全安里,115000,21,二個月,1085.0,,3年,簡易裝潢,已辦,"25.0248864,121.5490973","25°01'29.6""N 121°32'56.8""E",106台北市大安區敦化南路二段279號,25.0248864,121.5490973,1F,12F,33432.977314011354,-1.221863022742934,2823065.0
11472831,21-Dec,TPE,台北市中山區南京東路三段19號,中山區復華里,138000,48,二個月,5980.0,,3年,簡易裝潢,已辦,"25.0523260,121.5377174","25°03'08.4""N 121°32'15.8""E",10491台北市中山區南京東路三段25號,25.052326,121.5377174,1F,12F,21224.91595284512,-0.4143777498369398,2723005.0
11191319,21-Dec,TPE,台北市中正區桃源街,中正區建國里,46000,18,二個月,,,一年,簡易裝潢,已辦,"25.0416771,121.5102746","25°02'30.0""N 121°30'37.0""E",100台北市中正區寶慶路37號,25.0416771,121.5102746,1F,3F,2974.320746175957,0.8190784593190928,860317.0
11688702,21-Dec,TPE,台北市大同區太原路8巷,大同區建明里,150000,73,二個月,,,一年,簡易裝潢,已辦,"25.0505932,121.5157120","25°03'02.1""N 121°30'56.6""E",103台北市大同區,25.0505932,121.515712,整棟,4F,21679.756337171104,-2.6617841592189606,1336075.0
11749724,21-Dec,TPE,台北市中山區龍江路328巷,中山區行仁里,36000,30,二個月,,,一年,簡易裝潢,已辦,"25.06528,121.539389","25°03'55.0""N 121°32'21.8""E","No, No. 23龍江路328巷中山區台北市10491",25.06528,121.539389,1F,5F,40912.81071875895,-1.970480633371973,2544143.0
11577595,21-Dec,TPE,台北市中正區汀州路二段,中正區螢雪里,90000,82,二個月,600.0,,一年,尚未裝潢,已辦,"25.0261939,121.5147456","25°01'34.3""N 121°30'53.1""E",100台北市中正區汀州路二段,25.0261939,121.5147456,1F,7F,17678.322031286105,-2.0361709880193146,1585999.0
11482314,21-Dec,TPE,台北市中山區農安街186號,中山區行政里,75000,65,二個月,,,一年,簡易裝潢,已辦,"25.0645945,121.5353390","25°03'52.5""N 121°32'07.2""E",104台北市中山區農安街188號,25.0645945,121.535339,1F,7F,41269.023307441785,-1.436663756832394,2008243.0
11837306,21-Dec,TPE,台北市松山區光復南路,松山區復建里,68000,20,二個月,820.0,,兩年,簡易裝潢,已辦,"25.0463310,121.5572540","25°02'46.8""N 121°33'26.1""E",105台北市松山區光復南路46巷,25.046331,121.557254,1F,12F,55314.83038929333,-0.5561154943877729,2179635.0
11512170,21-Dec,TPE,台北市大安區忠孝東路四段223巷,大安區建安里,99000,20,二個月,,,兩年,中檔裝潢,已辦,"25.0423443,121.5522383","25°02'32.4""N 121°33'08.1""E",106台北市 大安區敦化南路一段187巷62號1樓,25.0423443,121.5522383,1F,7F,32731.53217965089,-1.9321270953113423,3039876.0
11496512,21-Dec,TPE,台北市大安區新生南路三段,大安區龍坡里,68000,22,二個月,,,兩年,簡易裝潢,已辦,"25.0251190,121.5344310","25°01'30.4""N 121°32'04.0""E",106台北市大安區新生南路三段10號,25.025119,121.534431,1F,7F,41471.136763587805,-0.647329410316851,3355350.0
11483193,21-Dec,TPE,台北市大安區瑞安街124號,大安區龍圖里,75000,32,二個月,,,兩年,尚未裝潢,已辦,"25.0295792,121.5423512","25°01'46.5""N 121°32'32.5""E",106台北市大安區京倫瑞安大廈,25.0295792,121.5423512,1F,5F,31034.078878504435,-1.1456625282339448,4097363.0
11599904,21-Dec,TPE,台北市內湖區內湖路二段75號,內湖區港富里,56000,36,面議,,,兩年,已辦,未辦,"25.0798169,121.5825380","25°04'47.3""N 121°34'57.1""E",114台北市內湖區內湖路二段81號,25.0798169,121.582538,1F,4F,26749.913214832457,-1.0082892651901432,3952913.0
11655955,21-Dec,TPE,台北市士林區德行東路268號,士林區芝山里,26000,10,二個月,,,一年,高檔裝潢,已辦,"25.1098420,121.5351930","25°06'35.4""N 121°32'06.7""E",111台北市士林區德行東路,25.109842,121.535193,1F,5F,7006.020188583268,-0.8405014143841871,3642910.0
11497130,21-Dec,TPE,台北市信義區松隆路,信義區四育里,67000,28,二個月,,,1月,尚未裝潢,已辦,"25.0490274,121.5774054","25°02'56.5""N 121°34'38.7""E",110台北市信義區四育里,25.0490274,121.5774054,1F,1F,33250.59985961397,-1.5779621615450286,1899428.0
11833340,21-Dec,TPE,台北市內湖區成功路四段343號,內湖區秀湖里,73000,50,面議,,,一年,已辦,已辦,"25.0854137,121.6004547","25°05'07.5""N 121°36'01.6""E",114台北市內湖區大湖街131巷2弄6號,25.0854137,121.6004547,1F,5F,11886.159247342472,-1.6607719628326894,3455053.0
11680582,21-Dec,TPE,台北市松山區八德路四段204巷,松山區復盛里,27000,20,二個月,,,兩年,簡易裝潢,已辦,"25.048438,121.564669","25°02'54.4""N 121°33'52.8""E",105台北市松山區八德路四段204巷7弄,25.048438,121.564669,1F,4F,40022.90886578901,-2.252715368394872,2436851.0
11544151,21-Dec,TPE,台北市士林區福壽街45號,士林區舊佳里,45000,21,二個月,3245.0,,一年,已辦,已辦,"25.0966367,121.5253544","25°05'47.9""N 121°31'31.3""E",111台北市士林區中正路236巷2號,25.0966367,121.5253544,1F,7F,36740.627336405545,-1.4966660920467056,2469650.0
11568099,21-Dec,TPE,台北市北投區實踐街29號,北投區吉慶里,45000,20,二個月,,,一年,簡易裝潢,已辦,"25.1151660,121.5084310","25°06'54.6""N 121°30'30.4""E",112台北市北投區實踐街,25.115166,121.508431,1F,4F,14730.633422908008,-1.73227956214513,1948177.0
11585570,21-Dec,TPE,台北市大安區龍泉街,大安區龍泉里,179999,27,二個月,,,一年,簡易裝潢,已辦,"25.0249508,121.5293267","25°01'29.8""N 121°31'45.6""E",106台北市大安區泰順街26巷53號,25.0249508,121.5293267,1F,2F,54874.388741148825,1.4411007152942634,2643091.0
11586869,21-Dec,TPE,台北市中山區長春路137巷,中山區中吉里,120000,58,面議,4000.0,,兩年,尚未裝潢,已辦,"25.0562147,121.5324129","25°03'22.4""N 121°31'56.7""E",10491台北市中山區松江路170巷5號,25.0562147,121.5324129,1F,7F,30029.689818910883,-0.4022341195244472,2750941.0
11604917,21-Dec,TPE,台北市中正區衡陽路,中正區黎明里,200000,133,二個月,1200.0,,一年,簡易裝潢,已辦,"25.0429075,121.5141034","25°02'34.5""N 121°30'50.8""E",100台北市中正區懷寧街89-73,25.0429075,121.5141034,1F,15F,5734.29678372022,0.5857702086999723,1631191.0
11792664,21-Dec,TPE,台北市大安區復興南路二段161號,大安區龍雲里,97000,25,二個月,2000.0,,兩年,簡易裝潢,已辦,"25.0286563,121.5444753","25°01'43.2""N 121°32'40.1""E",106台北市大安區復興南路二段151巷,25.0286563,121.5444753,1F,12F,29243.583350975867,-2.0297679293652378,2953613.0
11353434,21-Dec,TPE,台北市萬華區西寧南路,萬華區福星里,160000,67,二個月,2300.0,,一年,尚未裝潢,已辦,"25.0473679,121.5067590","25°02'50.5""N 121°30'24.3""E",108台北市萬華區西寧南路6-1號,25.0473679,121.506759,1F,10F,23216.4529628721,-1.624845983796212,1612439.0
11786207,21-Dec,TPE,台北市中山區林森北路107巷,中山區正義里,80000,42,面議,,,一年,簡易裝潢,已辦,"25.0501919,121.5259552","25°03'00.7""N 121°31'33.4""E",10491台北市中山區林森北路107巷,25.0501919,121.5259552,1F,7F,39108.43229178102,-0.886793757179379,1685564.0
11682485,21-Dec,TPE,台北市中正區汀州路一段,中正區永功里,32000,15,二個月,,,一年,簡易裝潢,已辦,"25.0267994,121.5121142","25°01'36.5""N 121°30'43.6""E",100台北市中正區汀州路一段225號,25.0267994,121.5121142,整棟,3F,44572.88269231561,-1.0393707101664282,2269760.0
11471817,21-Dec,TPE,台北市中正區開封街一段16號,中正區黎明里,240000,77,二個月,,,3年,中檔裝潢,已辦,"25.04603,121.513756","25°02'45.7""N 121°30'49.5""E",100台北市中正區開封街一段,25.04603,121.513756,整棟,2F,5734.29678372022,0.5857702086999723,1631191.0
11789167,21-Dec,TPE,台北市萬華區西園路一段157號,萬華區青山里,89000,27,"270,000",,,一年,尚未裝潢,已辦,"25.0356247,121.4990473","25°02'08.3""N 121°29'56.6""E",108台北市萬華區西園路一段,25.0356247,121.4990473,1F,4F,16736.810564051786,-0.4137982593268141,1385419.0
11824983,21-Dec,TPE,台北市中山區北安路,中山區大直里,110000,61,二個月,,,一年,簡易裝潢,已辦,"25.0834040,121.5489190","25°05'00.3""N 121°32'56.1""E",10491台北市中山區北安路627號,25.083404,121.548919,1F,5F,14193.57851356997,-1.957954611540528,3928563.0
11829599,21-Dec,TPE,台北市松山區饒河街201號,松山區慈祐里,120000,20,二個月,2308.0,,一年,尚未裝潢,已辦,"25.0499521,121.5754093","25°02'59.8""N 121°34'31.5""E",105台北市松山區八德路四段654-660,25.0499521,121.5754093,1F,18F,27650.057474992504,-0.3575180954236886,2393420.0
11802355,21-Dec,TPE,台北市南港區南港路一段,南港區南港里,100000,36,二個月,,,一年,簡易裝潢,已辦,"25.054954,121.614033","25°03'17.8""N 121°36'50.5""E",115台北市南港區南港路一段133號號,25.054954,121.614033,1F,2F,16544.553038536433,0.6917206349828546,2200618.0
11689268,21-Dec,TPE,台北市大安區仁愛路四段300巷,大安區敦煌里,100125,43,二個月,500.0,,兩年,簡易裝潢,已辦,"25.0368596,121.5541722","25°02'12.7""N 121°33'15.0""E",106台北市大安區仁愛路四段280號,25.0368596,121.5541722,1F,7F,48961.44810521408,-1.0417644500814691,3637929.0
11693364,21-Dec,TPE,台北市大同區南京西路,大同區光能里,350000,48,二個月,4919.0,,一年,簡易裝潢,已辦,"25.0539081,121.5205591","25°03'14.1""N 121°31'14.0""E",10491台北市中山區民安里,25.0539081,121.5205591,1F,13F,43157.00380037817,-0.956768936386195,1841575.0
11664922,21-Dec,TPE,台北市士林區文林路410號,士林區福德里,150000,60,二個月,,,一年,中檔裝潢,已辦,"25.0940498,121.5250071","25°05'38.6""N 121°31'30.0""E",111台北市士林區文林路,25.0940498,121.5250071,整棟,2F,19783.63779274654,-1.8864694108600883,1818464.0
11691384,21-Dec,TPE,台北市松山區民生東路五段20號,松山區東榮里,80000,106,二個月,,,一年,中檔裝潢,已辦,"25.0591650,121.5572930","25°03'33.0""N 121°33'26.3""E",105台北市松山區民生東路五段69巷1弄,25.059165,121.557293,整棟,2F,31155.173777128584,-0.878431978362304,4853375.0
11672214,21-Dec,TPE,台北市萬華區康定路,萬華區富福里,50000,20,面議,,,一年,簡易裝潢,已辦,"25.034245,121.500911","25°02'03.3""N 121°30'03.3""E",108台北市萬華區康定路,25.034245,121.500911,1F,2F,30777.56994762269,-1.8281466517153195,1514932.0
11758273,21-Dec,TPE,台北市大安區信義路四段,大安區義安里,250000,41,二個月,2000.0,,5年,簡易裝潢,已辦,"25.0323613,121.5514797","25°01'56.5""N 121°33'05.3""E",106台北市大安區信義路四段186巷,25.0323613,121.5514797,1F,12F,30537.58209428585,-1.0389453219592355,3844691.0
11810537,21-Dec,TPE,台北市萬華區三水街,萬華區富民里,42000,20,"200,000",,,一年,簡易裝潢,已辦,"25.0360664,121.5008051","25°02'09.8""N 121°30'02.9""E",108台北市萬華區三水街86號,25.0360664,121.5008051,1F,3F,42950.10321535566,-1.4351759713883658,1189988.0
11814275,21-Dec,TPE,台北市松山區長安東路二段,松山區中正里,65000,23,二個月,,,一年,簡易裝潢,已辦,"25.048125,121.545209","25°02'53.3""N 121°32'42.8""E",105台北市松山區長安東路二段294號4號,25.048125,121.545209,1F,12F,29466.572383481845,-1.142283607167164,5786935.0
11817236,21-Dec,TPE,台北市大安區文昌街,大安區通安里,38000,14,二個月,662.0,,兩年,中檔裝潢,已辦,"25.0326849,121.552632","25°01'57.7""N 121°33'09.5""E",106台北市大安區文昌街145號,25.0326849,121.552632,1F,12F,45862.811009044686,-2.121355125270963,2358251.0
8566386,21-Dec,TPE,台北市中山區中山北路三段38號,中山區集英里,200000,69,二個月,,機械式停車位，費用另計,一年,尚未裝潢,已辦,"25.0658233,121.5220798","25°03'57.0""N 121°31'19.5""E",10491台北市中山區台2甲線38號,25.0658233,121.5220798,1F,13F,20744.09637439897,-0.5990158578695226,2900878.0
11734063,21-Dec,TPE,台北市萬華區成都路,萬華區西門里,260000,12,面議,,,一年,簡易裝潢,已辦,"25.0424874,121.5076947","25°02'33.0""N 121°30'27.7""E",108台北市萬華區成都路9號,25.0424874,121.5076947,1F,11F,26509.87919140661,-1.659900826861464,1282956.0
11518917,21-Dec,TPE,台北市松山區南京東路三段303巷,松山區中正里,115000,45,二個月,,平面式停車位，已含租金內,兩年,簡易裝潢,已辦,"25.0527440,121.5472270","25°03'09.9""N 121°32'50.0""E",105台北市松山區南京東路三段303巷8弄,25.052744,121.547227,1F,4F,29466.572383481845,-1.142283607167164,5786935.0
10976431,21-Dec,TPE,台北市大安區信義路四段199巷,大安區敦安里,500000,356,二個月,,平面式停車位，已含租金內,兩年,簡易裝潢,已辦,"25.0336500,121.5516950","25°02'01.1""N 121°33'06.1""E",106台北市大安區安和路一段116號,25.03365,121.551695,1F,4F,36504.079884274535,-0.9971817850142598,4242354.0
11521757,21-Dec,TPE,台北市北投區立功街102號,北投區一德里,45000,36,二個月,2367.0,,一年,尚未裝潢,已辦,"25.1269856,121.4711447","25°07'37.2""N 121°28'16.1""E",112台北市北投區立德路121巷1號,25.1269856,121.4711447,1F,12F,2818.0324882780587,-1.13862105404016,2557267.0
11694397,21-Dec,TPE,台北市中正區羅斯福路四段166號,中正區水源里,120000,24,二個月,2500.0,,兩年,簡易裝潢,已辦,"25.0123259,121.5362459","25°00'44.4""N 121°32'10.5""E",100台北市中正區台9線164號,25.0123259,121.5362459,1F,12F,7938.931950934741,-0.4441672418021181,1177893.0
11557539,21-Dec,TPE,台北市北投區西安街二段87號,北投區立農里,38000,15,二個月,,,兩年,簡易裝潢,已辦,"25.1175800,121.5131090","25°07'03.3""N 121°30'47.2""E",112台北市北投區西安街二段87號,25.11758,121.513109,1F,5F,30028.18296472381,-0.1814774193009682,3204993.0
6358347,21-Dec,TPE,台北市大同區民生西路149號,大同區雙連里,168000,18,面議,,,一年,簡易裝潢,已辦,"25.0574310,121.5178780","25°03'26.8""N 121°31'04.4""E",103台北市大同區民生西路147號,25.057431,121.517878,整棟,1F,45755.81743704651,-1.6253702410616633,2957639.0
11754541,21-Dec,TPE,台北市大安區敦化南路二段81巷45弄47號,大安區義安里,150000,45,二個月,,,兩年,簡易裝潢,已辦,"25.0315720,121.5510440","25°01'53.7""N 121°33'03.8""E",106台北市大安區文昌街16巷11弄12號,25.031572,121.551044,1F,7F,30537.58209428585,-1.0389453219592355,3844691.0
11531670,21-Dec,TPE,台北市大安區仁愛路四段,大安區德安里,285000,103,二個月,1500.0,,3年,簡易裝潢,已辦,"25.0376301,121.5464935","25°02'15.5""N 121°32'47.4""E",106台北市大安區仁愛路四段32號,25.0376301,121.5464935,1F,7F,39143.25089962484,-1.143844445436478,3570412.0
8849731,21-Dec,TPE,台北市文山區興隆路三段,文山區明興里,60000,34,二個月,,,一年,簡易裝潢,已辦,"24.9913083,121.5590274","24°59'28.7""N 121°33'32.5""E",116台北市文山區興隆路三段331號1樓,24.9913083,121.5590274,1F,17F,32948.47715094842,-1.426651636372167,2647707.0
11701514,21-Dec,TPE,台北市松山區南京東路五段251巷,松山區安平里,75000,30,面議,,,一年,簡易裝潢,已辦,"25.0514780,121.5643411","25°03'05.3""N 121°33'51.6""E",105台北市松山區南京東路五段235-213,25.051478,121.5643411,1F,4F,39713.64129092309,-0.951129010217396,3056857.0
11709886,21-Dec,TPE,台北市中山區南京東路二段,中山區興亞里,250000,30,"750,000",,,兩年,簡易裝潢,已辦,"25.0508821,121.5325579","25°03'03.2""N 121°31'57.2""E",10491台北市中山區松江路100巷4號,25.0508821,121.5325579,1F,11F,21968.7477809728,0.0314843270238155,2835061.0
11710615,21-Dec,TPE,台北市大安區臨江街,大安區通化里,80000,14,二個月,1800.0,,兩年,簡易裝潢,已辦,"25.0296426,121.5565941","25°01'46.7""N 121°33'23.7""E",106台北市大安區臨江街17號,25.0296426,121.5565941,1F,4F,52598.05455926029,-0.7276535600304463,2422355.0
11710955,21-Dec,TPE,台北市大安區基隆路二段,大安區虎嘯里,70000,30,面議,800.0,,一年,簡易裝潢,已辦,"25.0222963,121.5499171","25°01'20.3""N 121°32'59.7""E",106台北市大安區元寶大廈,25.0222963,121.5499171,1F,7F,26169.627795738656,-1.6230082674922208,2281243.0
11501328,21-Dec,TPE,台北市北投區尊賢街,北投區尊賢里,95000,43,二個月,4878.0,,兩年,尚未裝潢,未辦,"25.1163753,121.5076339","25°06'59.0""N 121°30'27.5""E",112台北市北投區尊賢街236號,25.1163753,121.5076339,1F,12F,65568.0987847463,-0.6411777056544388,1588642.0
11573620,21-Dec,TPE,台北市內湖區瑞光路517號,內湖區西湖里,160000,31,二個月,,,2年,高檔裝潢,已辦,"25.0800007,121.5696997","25°04'48.0""N 121°34'10.9""E",114台北市內湖區奔騰科技大樓,25.0800007,121.5696997,1F,7F,15663.485203708558,-2.015517407925005,2656491.0
11534040,21-Dec,TPE,台北市松山區民生東路五段,松山區東榮里,160000,37,二個月,,,一年,簡易裝潢,已辦,"25.0589637,121.5566692","25°03'32.3""N 121°33'24.0""E",105台北市松山區民生東路五段29號,25.0589637,121.5566692,1F,4F,31155.173777128584,-0.878431978362304,4853375.0
11576406,21-Dec,TPE,台北市士林區基河路136號,士林區義信里,65000,40,二個月,,平面式停車位，已含租金內,一年,簡易裝潢,已辦,"25.0902203,121.5232538","25°05'24.8""N 121°31'23.7""E",111台北市士林區小西街,25.0902203,121.5232538,1F,16F,17659.55294279979,-1.7718829190173906,1375936.0
11682205,21-Dec,TPE,台北市中正區杭州南路一段,中正區文北里,68000,28,二個月,3620.0,,一年,簡易裝潢,已辦,"25.0390561,121.5255205","25°02'20.6""N 121°31'31.9""E",100台北市中正區杭州南路一段83號,25.0390561,121.5255205,1F,11F,33351.541839451034,-0.4610885914708558,5198472.0
11516057,21-Dec,TPE,台北市北投區中央北路二段115號,北投區豐年里,58000,30,二個月,,,兩年,尚未裝潢,已辦,"25.1371250,121.4946580","25°08'13.7""N 121°29'40.8""E",112台北市北投區中央北路二段115號,25.137125,121.494658,1F,4F,6133.824508042759,-1.463563762659407,1261361.0
11509686,21-Dec,TPE,台北市中正區許昌街,中正區黎明里,300000,127,二個月,,,兩年,尚未裝潢,已辦,"25.0455854,121.5156392","25°02'44.1""N 121°30'56.3""E",100台北市中正區黎明里,25.0455854,121.5156392,1F,4F,5734.29678372022,0.5857702086999723,1631191.0
11549644,21-Dec,TPE,台北市南港區重陽路125巷,南港區重陽里,80000,37,二個月,2450.0,,一年,簡易裝潢,已辦,"25.0567941,121.5978323","25°03'24.5""N 121°35'52.2""E",115台北市南港區重陽路125巷,25.0567941,121.5978323,1F,8F,16489.42792447502,-1.4608330406142698,3541690.0
11554886,21-Dec,TPE,台北市士林區忠誠路二段,士林區天福里,59000,25,二個月,,,兩年,尚未裝潢,已辦,"25.1144500,121.5313230","25°06'52.0""N 121°31'52.8""E",111台北市士林區忠誠路二段140巷15弄130號,25.11445,121.531323,1F,5F,31858.90012502573,-0.5995128537852779,2811877.0
8615986,21-Dec,TPE,台北市信義區林口街,信義區松光里,42000,25,二個月,,,一年,簡易裝潢,已辦,"25.0382979,121.5791380","25°02'17.9""N 121°34'44.9""E",110台北市信義區松山路515巷2弄,25.0382979,121.579138,1F,4F,44306.03221211958,-1.4008870382433258,1907779.0
11443959,21-Dec,TPE,台北市中山區堤頂大道二段,中山區金泰里,60000,38,二個月,4300.0,平面式停車位，費用另計,一年,中檔裝潢,已辦,"25.0801501,121.5615562","25°04'48.5""N 121°33'41.6""E",10491台北市中山區樂群二路299號,25.0801501,121.5615562,1F,11F,7344.064101939221,0.1566459456922094,5937431.0
11688590,21-Dec,TPE,台北市中山區長春路,中山區中原里,120000,34,面議,11880.0,平面式停車位，費用另計,3年,高檔裝潢,已辦,"25.0541855,121.5283835","25°03'15.1""N 121°31'42.2""E",10491台北市中山區新生北路二段31巷,25.0541855,121.5283835,1F,13F,30450.17745388353,-0.3330512454217486,2407438.0
11680184,21-Dec,TPE,台北市士林區延平北路六段12號,士林區社新里,60000,40,二個月,,,1月,中檔裝潢,未辦,"25.087205,121.509216","25°05'13.9""N 121°30'33.2""E",111台北市士林區延平北路六段,25.087205,121.509216,1F,1F,22358.926625128588,-1.532157541501059,2302398.0
11687188,21-Dec,TPE,台北市松山區饒河街,松山區慈祐里,180000,50,二個月,,,一年,簡易裝潢,已辦,"25.0508531,121.5766146","25°03'03.1""N 121°34'35.8""E",105台北市松山區松河街168號,25.0508531,121.5766146,1F,4F,27650.057474992504,-0.3575180954236886,2393420.0
11448803,21-Dec,TPE,台北市信義區松山路547號,信義區松光里,80000,54,二個月,,,一年,尚未裝潢,已辦,"25.0383729,121.5793109","25°02'18.1""N 121°34'45.5""E",110台北市信義區林口街51-1號,25.0383729,121.5793109,1F,7F,44306.03221211958,-1.4008870382433258,1907779.0
11855584,21-Dec,TPE,台北市萬華區漢中街,萬華區萬壽里,180000,28,二個月,,,兩年,中檔裝潢,已辦,"25.0453072,121.5076675","25°02'43.1""N 121°30'27.6""E",108台北市萬華區,25.0453072,121.5076675,1F,5F,18289.4591152021,-2.330547523226419,1136466.0
11512476,21-Dec,TPE,台北市大安區文昌街,大安區通化里,280000,61,二個月,,,3年,簡易裝潢,已辦,"25.0331624,121.5543904","25°01'59.4""N 121°33'15.8""E",106台北市大安區,25.0331624,121.5543904,整棟,3F,52598.05455926029,-0.7276535600304463,2422355.0
11481345,21-Dec,TPE,台北市中山區龍江路,中山區朱崙里,66000,21,二個月,2720.0,,兩年,尚未裝潢,未辦,"25.0475498,121.5402580","25°02'51.2""N 121°32'24.9""E",10491台北市中山區龍江路,25.0475498,121.540258,1F,7F,23137.60128868763,0.447031917993194,1401459.0
11487954,21-Dec,TPE,台北市信義區莊敬路,信義區三張里,65000,30,二個月,,,一年,已辦,未辦,"25.0271660,121.5660940","25°01'37.8""N 121°33'57.9""E",110台北市信義區莊敬路410號,25.027166,121.566094,1F,4F,30014.71087611474,-1.33597831846215,4064796.0
11465551,21-Dec,TPE,台北市大安區忠孝東路四段216巷,大安區車層里,220000,40,二個月,,,兩年,尚未裝潢,已辦,"25.0406160,121.5530870","25°02'26.2""N 121°33'11.1""E",106台北市大安區忠孝東路四段216巷15號,25.040616,121.553087,1F,7F,52235.02986114866,-1.1391250192385924,4043221.0
11220706,21-Dec,TPE,台北市大安區忠孝東路四段223巷69號,松山區吉仁里,82000,17,"200,000",300.0,,一年,簡易裝潢,已辦,"25.0444229,121.5537459","25°02'39.9""N 121°33'13.5""E",106台北市大安區,25.0444229,121.5537459,1F,7F,67886.25390014867,-0.6299331643263351,1881966.0
11627869,21-Dec,TPE,台北市松山區光復北路9號,松山區吉祥里,200000,58,面議,7590.0,,5年,尚未裝潢,已辦,"25.0490490,121.5581060","25°02'56.6""N 121°33'29.2""E",105台北市松山區光復北路9號之1,25.049049,121.558106,1F,11F,37638.327773377416,-2.22744392785527,3913526.0
11630197,21-Dec,TPE,台北市士林區美德街,士林區舊佳里,80000,27,二個月,,,一年,尚未裝潢,已辦,"25.0956521,121.5251254","25°05'44.4""N 121°31'30.5""E",111台北市士林區美德街68號,25.0956521,121.5251254,1F,4F,36740.627336405545,-1.4966660920467056,2469650.0
11824813,21-Dec,TPE,台北市北投區大業路300巷,北投區中央里,38000,26,二個月,,,一年,簡易裝潢,已辦,"25.1283004,121.4991716","25°07'41.9""N 121°29'57.0""E",112台北市北投區大業路300巷,25.1283004,121.4991716,1F,4F,30893.94933787493,-1.979792853836641,3164638.0
11468564,21-Dec,TPE,台北市士林區承德路四段,士林區承德里,250000,160,面議,,,兩年,簡易裝潢,已辦,"25.0822690,121.5234320","25°04'56.2""N 121°31'24.4""E",111台北市士林區承德路四段79號,25.082269,121.523432,1F,14F,35025.79658360594,-1.161273771354665,2372860.0
11663651,21-Dec,TPE,台北市萬華區西園路一段256巷1號,萬華區糖廍里,68000,75,二個月,,,一年,尚未裝潢,已辦,"25.0339759,121.4982599","25°02'02.3""N 121°29'53.7""E",108台北市萬華區西園路一段256巷1號,25.0339759,121.4982599,整棟,1F,35863.047911526985,-1.7803801679872795,1511650.0
11737264,21-Dec,TPE,台北市中山區林森北路524號,中山區聚葉里,200000,52,面議,7394.0,平面式停車位，費用另計,兩年,尚未裝潢,已辦,"25.0621475,121.5249998","25°03'43.7""N 121°31'30.0""E",10491台北市中山區民權東路一段70巷,25.0621475,121.5249998,1F,18F,30980.69810977406,-0.6567978148040925,1555726.0
11684597,21-Dec,TPE,台北市大安區羅斯福路二段81巷16弄5號,大安區古莊里,64000,25,二個月,2000.0,,兩年,中檔裝潢,未辦,"25.0250626,121.5246582","25°01'30.2""N 121°31'28.8""E",106台北市大安區羅斯福路二段81巷16弄5號,25.0250626,121.5246582,1F,5F,34230.50324792905,0.8295320928445982,3769138.0
11760815,21-Dec,TPE,台北市大安區羅斯福路二段35巷,大安區錦華里,58000,30,二個月,,,一年,簡易裝潢,已辦,"25.0279061,121.5226722","25°01'40.5""N 121°31'21.6""E",106台北市大安區羅斯福路二段35巷,25.0279061,121.5226722,1F,4F,58404.54412461435,0.0406888326782854,3539366.0
11816296,21-Dec,TPE,台北市信義區永吉路433號,信義區永吉里,86000,20,面議,,,一年,中檔裝潢,已辦,"25.0456100,121.5781080","25°02'44.2""N 121°34'41.2""E",110台北市信義區永吉路433號,25.04561,121.578108,1F,3F,32744.43776827745,-1.7584067806151182,916899.0
11726815,21-Dec,TPE,台北市中山區民生東路三段3號,中山區江山里,450000,156,三個月,,平面式停車位，已含租金內,兩年,簡易裝潢,已辦,"25.0589764,121.5382544","25°03'32.3""N 121°32'17.7""E",10491台北市中山區合江街116巷18-3號,25.0589764,121.5382544,1F,12F,37381.42356700479,-1.291753623983653,3424152.0
11262242,21-Dec,TPE,台北市信義區忠孝東路五段396號,信義區富台里,200000,194,三個月,,平面式停車位，已含租金內,兩年,簡易裝潢,已辦,"25.0417168,121.5756294","25°02'30.2""N 121°34'32.3""E",110台北市信義區忠孝東路五段423巷6弄,25.0417168,121.5756294,1F,12F,39816.76760778728,-0.7362009135914189,1981177.0
11361727,21-Dec,TPE,台北市大安區忠孝東路四段181巷6號,大安區建安里,450000,54,二個月,2610.0,,兩年,尚未裝潢,已辦,"25.0434188,121.5516308","25°02'36.3""N 121°33'05.9""E",106台北市大安區敦化南路一段161巷50號1樓,25.0434188,121.5516308,1F,14F,32731.53217965089,-1.9321270953113423,3039876.0
11723939,21-Dec,TPE,台北市南港區忠孝東路七段,南港區中南里,80000,33,二個月,,,兩年,簡易裝潢,已辦,"25.0529311,121.6156477","25°03'10.6""N 121°36'56.3""E",115台北市南港區忠孝東路七段,25.0529311,121.6156477,1F,5F,2156.3364620975462,-2.364998031582788,992878.0
11737697,21-Dec,TPE,台北市內湖區內湖路一段,內湖區西湖里,300000,108,二個月,10897.0,平面式停車位，費用另計,3年,尚未裝潢,已辦,"25.0818093,121.5683234","25°04'54.5""N 121°34'06.0""E",114台北市內湖區內湖路一段288巷,25.0818093,121.5683234,1F,10F,15663.485203708558,-2.015517407925005,2656491.0
11829033,21-Dec,TPE,台北市信義區松仁路200號,信義區三張里,85000,25,二個月,,,兩年,簡易裝潢,已辦,"25.0273560,121.5682290","25°01'38.5""N 121°34'05.6""E",110台北市信義區松仁路160號,25.027356,121.568229,1F,4F,30014.71087611474,-1.33597831846215,4064796.0
11728506,21-Dec,TPE,台北市中山區雙城街19巷,中山區恆安里,128000,57,二個月,11830.0,,一年,簡易裝潢,已辦,"25.0644283,121.5237893","25°03'51.9""N 121°31'25.6""E",10491台北市中山區雙城街10巷,25.0644283,121.5237893,1F,14F,38794.34495285343,0.0757945193323431,2117078.0
11739965,21-Dec,TPE,台北市信義區福德街103號,信義區松隆里,38000,23,面議,,,兩年,已辦,已辦,"25.0371265,121.5819313","25°02'13.7""N 121°34'55.0""E",110台北市信義區福德街103號,25.0371265,121.5819313,1F,4F,2967.182400280779,-1.6519104349863738,564660.0
11705372,21-Dec,TPE,台北市中山區中山北路一段105巷,中山區正得里,72000,26,面議,,,1月,簡易裝潢,已辦,"25.0507790,121.5232980","25°03'02.8""N 121°31'23.9""E",10491台北市中山區中山北路一段105巷,25.050779,121.523298,1F,4F,24953.495137385096,-0.8080099136045386,1859218.0
11589718,21-Dec,TPE,台北市大同區延平北路一段,大同區朝陽里,43000,19,二個月,1921.0,,一年,簡易裝潢,已辦,"25.0544990,121.5128942","25°03'16.2""N 121°30'46.4""E",103台北市大同區南京西路167巷,25.054499,121.5128942,1F,12F,42734.80695337414,-0.971693868007062,1696684.0
11841695,21-Dec,TPE,台北市中山區德惠街92號,中山區新庄里,35000,35,二個月,,,一年,簡易裝潢,已辦,"25.0666010,121.5289056","25°03'59.8""N 121°31'44.1""E",10491台北市中山區德惠街,25.066601,121.5289056,1F,7F,7672.599687243176,-2.2037582092711743,1461192.0
11588026,21-Dec,TPE,台北市士林區中山北路七段102號,士林區天山里,35000,28,二個月,,,一年,高檔裝潢,已辦,"25.1229025,121.5329355","25°07'22.5""N 121°31'58.6""E",111台北市士林區中山北路七段140巷10號,25.1229025,121.5329355,1F,7F,42770.1224656397,-0.9466397329400243,3232662.0
11712900,21-Dec,TPE,台北市文山區辛亥路四段234號,文山區興泰里,39800,30,二個月,,,一年,簡易裝潢,已辦,"25.0019243,121.555055","25°00'06.9""N 121°33'18.2""E",116台北市文山區辛亥路四段252巷2弄,25.0019243,121.555055,1F,4F,8878.900046953311,-0.2786896101724631,1666441.0
9918847,21-Dec,TPE,台北市北投區中央北路一段8號,北投區大同里,110000,26,二個月,1010.0,,兩年,尚未裝潢,已辦,"25.1337485,121.5012172","25°08'01.5""N 121°30'04.4""E",112台北市北投區中央北路一段,25.1337485,121.5012172,1F,11F,8830.866087816092,-2.87752031187809,2169240.0
11443239,21-Dec,TPE,台北市萬華區昆明街,萬華區西門里,150000,30,面議,,,兩年,簡易裝潢,已辦,"25.0419511,121.5037991","25°02'31.0""N 121°30'13.7""E",108台北市萬華區內江街87號,25.0419511,121.5037991,1F,7F,26509.87919140661,-1.659900826861464,1282956.0
11527092,21-Dec,TPE,台北市內湖區港華街,內湖區麗山里,35000,16,二個月,3000.0,平面式停車位，已含租金內,一年,中檔裝潢,已辦,"25.0844379,121.5733864","25°05'04.0""N 121°34'24.2""E",114台北市內湖區港華街109巷13號,25.0844379,121.5733864,1F,13F,36080.35939002989,-0.5595252527257344,2651133.0
11663512,21-Dec,TPE,台北市松山區八德路四段,松山區新聚里,49800,35,二個月,,,一年,簡易裝潢,已辦,"25.0492287,121.5667114","25°02'57.2""N 121°34'00.2""E",105台北市松山區新聚里,25.0492287,121.5667114,1F,5F,52762.67911817818,-1.7180853774011684,3373427.0
11459744,21-Dec,TPE,台北市內湖區內湖路三段,內湖區內湖里,32500,21,二個月,2400.0,平面式停車位，費用另計,兩年,簡易裝潢,已辦,"25.0852124,121.5917864","25°05'06.8""N 121°35'30.4""E",114台北市內湖區金龍路67-89,25.0852124,121.5917864,1F,15F,39958.036112448775,0.6199535700751675,2799230.0
11632211,21-Dec,TPE,台北市大同區錦西街52巷20號,大同區雙連里,50000,19,二個月,1872.0,,一年,簡易裝潢,已辦,"25.0597472,121.5199216","25°03'35.1""N 121°31'11.7""E",103台北市大同區錦西街52巷,25.0597472,121.5199216,1F,15F,45755.81743704651,-1.6253702410616633,2957639.0
11639289,21-Dec,TPE,台北市萬華區中華路二段331號,中正區忠勤里,70000,18,二個月,,,一年,尚未裝潢,已辦,"25.0284954,121.5075928","25°01'42.6""N 121°30'27.3""E",100台北市中正區惠安街55號,25.0284954,121.5075928,1F,7F,62174.18432460938,-2.379050877768944,1326452.0
11824861,21-Dec,TPE,台北市中山區八德路二段,大安區民輝里,32000,12,二個月,970.0,,一年,簡易裝潢,已辦,"25.0445648,121.5341670","25°02'40.4""N 121°32'03.0""E",104台北市大安區八德路二段,25.0445648,121.534167,1F,7F,19754.7216469443,-1.6745114149710656,4878840.0
11700758,21-Dec,TPE,台北市中正區中華路一段29號,中正區光復里,150000,30,面議,,,一年,中檔裝潢,已辦,"25.0455999,121.509734","25°02'44.2""N 121°30'35.0""E",100台北市中正區中華路一段29-1號,25.0455999,121.509734,1F,1F,12649.652578401554,-0.5278111110776547,1658650.0
11812833,21-Dec,TPE,台北市中山區中山北路三段,中山區恆安里,84800,51,面議,,,一年,尚未裝潢,已辦,"25.0643315,121.5223699","25°03'51.6""N 121°31'20.5""E",10491台北市中山區中山北路三段,25.0643315,121.5223699,1F,3F,38794.34495285343,0.0757945193323431,2117078.0
11764084,21-Dec,TPE,台北市大同區長安西路78巷,大同區建明里,42000,20,二個月,,,兩年,尚未裝潢,已辦,"25.0487800,121.5186980","25°02'55.6""N 121°31'07.3""E",103大同區市民大道一段209號,25.04878,121.518698,1F,4F,21679.756337171104,-2.6617841592189606,1336075.0
11785492,21-Dec,TPE,台北市大安區通化街39巷,大安區通化里,18500,25,面議,,,一年,簡易裝潢,已辦,"25.0308140,121.5561260","25°01'50.9""N 121°33'22.1""E",106台北市大安區通化街39巷61弄,25.030814,121.556126,1F,5F,52598.05455926029,-0.7276535600304463,2422355.0
11796050,21-Dec,TPE,台北市中山區長安東路二段21號,中山區興亞里,78000,39,面議,,,兩年,尚未裝潢,已辦,"25.0486130,121.5308710","25°02'55.0""N 121°31'51.1""E",10491台北市中山區長安東路二段,25.048613,121.530871,1F,3F,21968.7477809728,0.0314843270238155,2835061.0
11838511,21-Dec,TPE,台北市文山區羅斯福路五段218巷,文山區萬隆里,50000,26,面議,,,一年,簡易裝潢,已辦,"25.0019550,121.5371190","25°00'07.0""N 121°32'13.6""E",116台北市文山區羅斯福路五段218巷35號,25.001955,121.537119,1F,5F,59693.131294214894,-1.047538955886059,3037729.0
11647218,21-Dec,TPE,台北市松山區南京東路五段59巷,松山區東光里,35000,20,二個月,,,一年,尚未裝潢,已辦,"25.0524796,121.5596911","25°03'08.9""N 121°33'34.9""E",105台北市松山區南京東路五段59巷27弄,25.0524796,121.5596911,1F,4F,36900.13471537036,-1.952800883867874,3394181.0
11464107,21-Dec,TPE,台北市士林區忠誠路二段,士林區三玉里,98000,27,二個月,1000.0,,兩年,高檔裝潢,已辦,"25.1112440,121.5305740","25°06'40.5""N 121°31'50.1""E",111台北市士林區忠誠路二段66號,25.111244,121.530574,1F,7F,10869.34414033171,-1.4252434393209334,3190552.0
11571173,21-Dec,TPE,台北市萬華區康定路33號,萬華區萬壽里,32000,16,二個月,418.0,,一年,簡易裝潢,已辦,"25.0438700,121.5028370","25°02'37.9""N 121°30'10.2""E",108台北市萬華區康定路31號,25.04387,121.502837,1F,11F,18289.4591152021,-2.330547523226419,1136466.0
11817477,21-Dec,TPE,台北市內湖區成功路三段187巷1號,內湖區紫星里,46000,25,二個月,,,一年,尚未裝潢,已辦,"25.0802180,121.5910750","25°04'48.8""N 121°35'27.9""E",114台北市內湖區成功路三段187巷4號,25.080218,121.591075,1F,5F,36569.88363758725,-1.2221708611714155,3116160.0
11680424,21-Dec,TPE,台北市北投區光明路215號,北投區中心里,100000,30,二個月,,,兩年,簡易裝潢,已辦,"25.1369822,121.5045627","25°08'13.1""N 121°30'16.4""E",112台北市北投區中山路1-2號,25.1369822,121.5045627,1F,2F,15098.281184928255,-1.063735215602287,2354831.0
11766843,21-Dec,TPE,台北市內湖區東湖路119巷49弄38號,內湖區安湖里,45000,55,面議,,平面式停車位，已含租金內,兩年,尚未裝潢,未辦,"25.070386,121.616195","25°04'13.4""N 121°36'58.3""E",114台北市內湖區東湖路119巷49弄38號,25.070386,121.616195,1F,2F,51814.726189983085,-0.8104333399541493,3117732.0
11519251,21-Dec,TPE,台北市士林區大東路,士林區義信里,85000,30,面議,,,一年,簡易裝潢,已辦,"25.0888011,121.5245551","25°05'19.7""N 121°31'28.4""E",111台北市士林區小南街1號,25.0888011,121.5245551,1F,4F,17659.55294279979,-1.7718829190173906,1375936.0
11860969,21-Dec,TPE,台北市大安區金華街243巷14號,大安區錦泰里,70000,14,面議,1402.0,,一年,簡易裝潢,已辦,"25.0290330,121.5261220","25°01'44.5""N 121°31'34.0""E",106台北市大安區金山南路二段146號4樓,25.029033,121.526122,1F,7F,29169.456027170123,1.5417006521672918,2181234.0
11561684,21-Dec,TPE,台北市內湖區內湖路一段285巷65弄27號,內湖區西湖里,53000,28,二個月,,,兩年,高檔裝潢,已辦,"25.0843582,121.5681839","25°05'03.7""N 121°34'05.5""E",114台北市內湖區內湖路一段323巷,25.0843582,121.5681839,1F,5F,15663.485203708558,-2.015517407925005,2656491.0
11797759,21-Dec,TPE,台北市文山區景華街99號,文山區興福里,58000,30,二個月,,,一年,簡易裝潢,已辦,"24.9955385,121.5464341","24°59'43.9""N 121°32'47.2""E",116台北市文山區景華街97號,24.9955385,121.5464341,1F,4F,50547.34540807121,-1.761245949766647,2080926.0
11854157,21-Dec,TPE,台北市中山區長安東路二段,中山區朱崙里,85000,27,面議,,機械式停車位，費用另計,一年,簡易裝潢,已辦,"25.0476841,121.5420550","25°02'51.7""N 121°32'31.4""E",10491台北市中山區遼寧街,25.0476841,121.542055,1F,12F,23137.60128868763,0.447031917993194,1401459.0
11770908,21-Dec,TPE,台北市內湖區康寧路一段,內湖區內湖里,33000,20,二個月,,,一年,簡易裝潢,已辦,"25.0843163,121.5923613","25°05'03.5""N 121°35'32.5""E",114台北市內湖區內湖路二段355巷19號,25.0843163,121.5923613,1F,5F,39958.036112448775,0.6199535700751675,2799230.0
11730794,21-Dec,TPE,台北市萬華區成都路27巷,萬華區西門里,65000,36,二個月,,,一年,簡易裝潢,已辦,"25.0429800,121.5070380","25°02'34.7""N 121°30'25.3""E","No. 8之1, Lane 27, Chengdu Road, 萬華區台北市108",25.04298,121.507038,1F,5F,26509.87919140661,-1.659900826861464,1282956.0
11667698,21-Dec,TPE,台北市中正區羅斯福路四段52巷18號,中正區水源里,66000,10,二個月,,,一年,簡易裝潢,已辦,"25.014491,121.5335355","25°00'52.2""N 121°32'00.7""E",100台北市中正區羅斯福路四段52巷18號1樓,25.014491,121.5335355,1F,7F,7938.931950934741,-0.4441672418021181,1177893.0
11006757,21-Dec,TPE,台北市內湖區東湖路,內湖區安湖里,170000,32,二個月,,,一年,簡易裝潢,已辦,"25.0696906,121.6134757","25°04'10.9""N 121°36'48.5""E",114台北市內湖區東湖路33巷15號,25.0696906,121.6134757,1F,5F,51814.726189983085,-0.8104333399541493,3117732.0
11707830,21-Dec,TPE,台北市士林區社中街,士林區社子里,45000,55,面議,,,一年,簡易裝潢,已辦,"25.0900035,121.5103123","25°05'24.0""N 121°30'37.1""E",111台北市士林區社中街,25.0900035,121.5103123,1F,4F,17603.13182443521,-1.4150633667547354,1754783.0
11587747,21-Dec,TPE,台北市中正區羅斯福路三段316巷,中正區文盛里,110000,15,二個月,,,一年,簡易裝潢,已辦,"25.0156670,121.5325012","25°00'56.4""N 121°31'57.0""E",100台北市中正區羅斯福路三段316巷8弄,25.015667,121.5325012,1F,1F,24170.67725848128,3.3676818985766133,1086607.0
11706758,21-Dec,TPE,台北市中山區市民大道三段,中山區朱園里,40000,10,二個月,,,一年,簡易裝潢,已辦,"25.0458879,121.5365273","25°02'45.2""N 121°32'11.5""E",10491台北市中山區八德路二段108號,25.0458879,121.5365273,1F,5F,16690.778379273743,-0.5000985576377885,2769267.0
11094206,21-Dec,TPE,台北市松山區八德路四段699號,松山區慈祐里,45000,16,二個月,450.0,,兩年,簡易裝潢,已辦,"25.0501920,121.5772105","25°03'00.7""N 121°34'38.0""E",105台北市松山區八德路四段721號,25.050192,121.5772105,1F,12F,27650.057474992504,-0.3575180954236886,2393420.0
11626775,21-Dec,TPE,台北市士林區大北路42號,士林區仁勇里,75000,32,面議,,,一年,高檔裝潢,已辦,"25.0893411,121.5254090","25°05'21.6""N 121°31'31.5""E",111台北市士林區,25.0893411,121.525409,1F,4F,31935.038004579543,-2.2569285235763585,1266108.0
11635630,21-Dec,TPE,台北市信義區基隆路一段37巷,信義區雅祥里,32000,12,二個月,,,一年,簡易裝潢,已辦,"25.046324,121.568948","25°02'46.8""N 121°34'08.2""E",11069台北市信義區基隆路一段37巷18號之三號,25.046324,121.568948,1F,5F,29986.7199958142,-1.4731675334616057,2005982.0
11207996,21-Dec,TPE,台北市大安區大安路一段31巷,大安區光武里,45000,14,二個月,,,一年,簡易裝潢,已辦,"25.0441189,121.5464940","25°02'38.8""N 121°32'47.4""E",106台北市大安區光武里,25.0441189,121.546494,1F,4F,37131.21454223301,-1.4931504734489267,3643217.0
11771200,21-Dec,TPE,台北市大安區敦化南路一段160巷,大安區光武里,12000,10,二個月,,,一年,未辦,已辦,"25.0438093,121.5472090","25°02'37.7""N 121°32'50.0""E",106台北市大安區大安路一段31巷24號,25.0438093,121.547209,1F,1F,37131.21454223301,-1.4931504734489267,3643217.0
11712982,21-Dec,TPE,台北市大同區涼州街,大同區延平里,98000,63,面議,400.0,,兩年,已辦,已辦,"25.0605925,121.5117979","25°03'38.1""N 121°30'42.5""E",103台北市大同區保安街49巷,25.0605925,121.5117979,1F,9F,45347.02320759156,-1.171617071394785,1338553.0
11461983,21-Dec,TPE,台北市松山區南京東路五段291巷,松山區安平里,48000,20,二個月,,,一年,高檔裝潢,未辦,"25.0517031,121.5646349","25°03'06.1""N 121°33'52.7""E",105台北市松山區南京東路五段,25.0517031,121.5646349,1F,4F,39713.64129092309,-0.951129010217396,3056857.0
11653235,21-Dec,TPE,台北市信義區忠孝東路五段215巷22號,信義區興雅里,39000,16,面議,,,一年,簡易裝潢,已辦,"25.0422392,121.5702113","25°02'32.1""N 121°34'12.8""E",110台北市信義區虎林街120巷永吉路120巷跟,25.0422392,121.5702113,1F,1F,22399.06076647384,-2.131715641858293,2435957.0
11559974,21-Dec,TPE,台北市大安區永康街14巷4號,大安區永康里,130000,24,二個月,,,兩年,簡易裝潢,已辦,"25.0312410,121.5293300","25°01'52.5""N 121°31'45.6""E",106台北市大安區永康街,25.031241,121.52933,1F,2F,31997.07455318371,-0.3879108995447892,2133014.0
11829739,21-Dec,TPE,台北市中山區中山北路二段128巷,中山區集英里,9000,20,一個月,,,一年,簡易裝潢,已辦,"25.0618266,121.5210896","25°03'42.6""N 121°31'15.9""E",10491台北市中山區中山北路二段128巷36號,25.0618266,121.5210896,1F,2F,20744.09637439897,-0.5990158578695226,2900878.0
11544714,21-Dec,TPE,台北市內湖區瑞光路76巷69號,內湖區湖元里,25000,15,二個月,3000.0,,三個月,中檔裝潢,已辦,"25.0709673,121.5811076","25°04'15.5""N 121°34'52.0""E",114台北市內湖區瑞光路76巷16號,25.0709673,121.5811076,1F,6F,2354.8240154726204,-1.6090779492294278,2436938.0
11492723,21-Dec,TPE,台北市松山區民生東路五段,松山區東榮里,150000,37,二個月,,,一年,已辦,已辦,"25.0589637,121.5566692","25°03'32.3""N 121°33'24.0""E",105台北市松山區民生東路五段29號,25.0589637,121.5566692,1F,4F,31155.173777128584,-0.878431978362304,4853375.0
11698994,21-Dec,TPE,台北市萬華區西園路一段72巷,萬華區青山里,55000,60,二個月,,,一年,中檔裝潢,已辦,"25.0393760,121.4991880","25°02'21.8""N 121°29'57.1""E",108台北市萬華區西園路一段72巷6-1號,25.039376,121.499188,1F,5F,16736.810564051786,-0.4137982593268141,1385419.0
11349388,21-Dec,TPE,台北市北投區溫泉路73巷5號,北投區溫泉里,150000,60,二個月,1000.0,,兩年,高檔裝潢,已辦,"25.1351436,121.5057407","25°08'06.5""N 121°30'20.7""E",112台北市北投區溫泉路68巷11號,25.1351436,121.5057407,1F,7F,26583.98242557089,-1.7346020189163092,2242561.0
11450527,21-Dec,TPE,台北市中山區八德路二段123號,中山區朱園里,120000,57,二個月,5694.0,平面式停車位，費用另計,一年,簡易裝潢,已辦,"25.0454491,121.5363581","25°02'43.6""N 121°32'10.9""E",10491台北市中山區建國南路一段,25.0454491,121.5363581,1F,24F,16690.778379273743,-0.5000985576377885,2769267.0
11796159,21-Dec,TPE,台北市士林區大東路,士林區福德里,59999,11,面議,,,三個月,簡易裝潢,已辦,"25.0923110,121.5254130","25°05'32.3""N 121°31'31.5""E",111台北市士林區大東路150號,25.092311,121.525413,1F,3F,19783.63779274654,-1.8864694108600883,1818464.0
11842385,21-Dec,TPE,台北市大同區重慶北路三段,大同區隆和里,150000,80,面議,,,兩年,尚未裝潢,已辦,"25.0655274,121.513506","25°03'55.9""N 121°30'48.6""E",103台北市大同區重慶北路三段42號,25.0655274,121.513506,1F,2F,28441.772581083376,1.876526716202746,958446.0
11816839,21-Dec,TPE,台北市內湖區內湖路一段,內湖區麗山里,130000,30,二個月,,,兩年,尚未裝潢,已辦,"25.0812650,121.5720850","25°04'52.6""N 121°34'19.5""E",114台北市內湖區內湖路一段439號1樓,25.081265,121.572085,1F,5F,36080.35939002989,-0.5595252527257344,2651133.0
11471800,21-Dec,TPE,台北市中正區開封街一段16號,中正區黎明里,240000,77,二個月,,,3年,中檔裝潢,已辦,"25.04603,121.513756","25°02'45.7""N 121°30'49.5""E",100台北市中正區開封街一段,25.04603,121.513756,整棟,2F,5734.29678372022,0.5857702086999723,1631191.0
11693879,21-Dec,TPE,台北市中山區松江路123巷,中山區中央里,78000,42,二個月,,,一年,簡易裝潢,已辦,"25.0530529,121.5338820","25°03'11.0""N 121°32'02.0""E",10491台北市中山區松江路123巷,25.0530529,121.533882,1F,6F,14986.753326120555,-1.4515914528251774,1610149.0
11710512,21-Dec,TPE,台北市大安區基隆路二段,大安區芳和里,60000,18,面議,,,兩年,簡易裝潢,已辦,"25.0224079,121.5505505","25°01'20.7""N 121°33'02.0""E",106台北市大安區基隆路二段,25.0224079,121.5505505,1F,5F,20811.76752277653,-0.4894356263086615,2229349.0
11654943,21-Dec,TPE,台北市中山區中山北路一段135巷,中山區正得里,70000,25,二個月,,,一年,高檔裝潢,未辦,"25.0514411,121.5241105","25°03'05.2""N 121°31'26.8""E",10491台北市中山區中山北路一段135巷,25.0514411,121.5241105,1F,4F,24953.495137385096,-0.8080099136045386,1859218.0
11560988,21-Dec,TPE,台北市中山區復興北路,中山區下埤里,32000,27,二個月,702.0,,一年,中檔裝潢,已辦,"25.0653473,121.5440655","25°03'55.3""N 121°32'38.6""E",104台北市中山區復興北路494號1樓,25.0653473,121.5440655,1F,7F,38503.65418749661,-1.3123020568327406,3172818.0
11511083,21-Dec,TPE,台北市松山區八德路四段453巷14號,松山區慈祐里,39000,12,二個月,600.0,,兩年,高檔裝潢,已辦,"25.0504572,121.5702536","25°03'01.7""N 121°34'12.9""E",105台北市松山區八德路四段453巷14號,25.0504572,121.5702536,1F,14F,27650.057474992504,-0.3575180954236886,2393420.0
11721817,21-Dec,TPE,台北市大安區敦化南路187巷75號,大安區義安里,125000,35,面議,,,一年,已辦,已辦,"25.0304060,121.5492010","25°01'49.5""N 121°32'57.1""E",106台北市大安區義安里,25.030406,121.549201,1F,1F,30537.58209428585,-1.0389453219592355,3844691.0
11685400,21-Dec,TPE,台北市萬華區雙園街21巷,萬華區和平里,19000,15,面議,,,一年,簡易裝潢,已辦,"25.0298583,121.4950963","25°01'47.5""N 121°29'42.4""E",108台北市萬華區雙園街21巷20號,25.0298583,121.4950963,1F,2F,46900.06292554252,-2.5204054555631723,1567459.0
11677380,21-Dec,TPE,台北市士林區福華路165巷,士林區德華里,70000,20,二個月,,,兩年,簡易裝潢,已辦,"25.1039949,121.5219531","25°06'14.4""N 121°31'19.0""E",111台北市士林區福華路165巷3號,25.1039949,121.5219531,1F,4F,19514.741342715235,-0.5024672237725032,1960548.0
11528862,21-Dec,TPE,台北市中山區吉林路161巷,中山區中庄里,40000,24,二個月,,,一年,簡易裝潢,已辦,"25.0591011,121.5321732","25°03'32.8""N 121°31'55.8""E",10491台北市中山區民生東路二段115巷25弄,25.0591011,121.5321732,1F,4F,34199.34850344049,-1.879026538898243,1857272.0
11773661,21-Dec,TPE,台北市士林區雨聲街,士林區名山里,42000,34,二個月,,,一年,中檔裝潢,已辦,"25.1029010,121.5285870","25°06'10.4""N 121°31'42.9""E",111台北市士林區雨聲街57號,25.102901,121.528587,1F,7F,18340.980122306664,-1.0936914781531768,3221059.0
11829201,21-Dec,TPE,台北市萬華區成都路81號,萬華區萬壽里,3670000,908,面議,134180.0,,一年,尚未裝潢,已辦,"25.0440676,121.5062430","25°02'38.6""N 121°30'22.5""E",108台北市萬華區西寧南路,25.0440676,121.506243,1F,13F,18289.4591152021,-2.330547523226419,1136466.0
11793889,21-Dec,TPE,台北市中山區新生北路三段68巷,中山區圓山里,88000,65,二個月,500.0,,一年,中檔裝潢,已辦,"25.0672099,121.5267791","25°04'02.0""N 121°31'36.4""E",10491台北市中山區新生北路三段82巷,25.0672099,121.5267791,1F,5F,6815.778207816072,-1.1247869385799212,1550998.0
11830275,21-Dec,TPE,台北市松山區富錦街,松山區精忠里,105800,35,二個月,1000.0,,兩年,簡易裝潢,已辦,"25.0619513,121.5620493","25°03'43.0""N 121°33'43.4""E",105台北市松山區民權東路四段200號,25.0619513,121.5620493,1F,7F,2017.1525851305707,-0.2587678637916646,2562417.0
11856286,21-Dec,TPE,台北市萬華區廣州街235號,萬華區青山里,250000,66,二個月,,,兩年,尚未裝潢,已辦,"25.0376050,121.4993600","25°02'15.4""N 121°29'57.7""E",108台北市萬華區華西街29巷京都高宿大廈,25.037605,121.49936,整棟,3F,16736.810564051786,-0.4137982593268141,1385419.0
11528926,21-Dec,TPE,台北市中山區中山北路一段68號,中山區民安里,60000,21,面議,500.0,,兩年,簡易裝潢,已辦,"25.048665,121.52079","25°02'55.2""N 121°31'14.8""E",10491台北市中山區台1甲線64號,25.048665,121.52079,1F,12F,19806.234806991262,-1.4481974642719977,1982235.0
11748312,21-Dec,TPE,台北市內湖區內湖路一段,內湖區西湖里,190000,22,二個月,,,兩年,中檔裝潢,已辦,"25.0823198,121.5677757","25°04'56.4""N 121°34'04.0""E",台北市內湖區,25.0823198,121.5677757,1F,5F,15663.485203708558,-2.015517407925005,2656491.0
6425428,21-Dec,TPE,台北市萬華區萬大路277巷29號,萬華區壽德里,45000,34,面議,,,一年,已辦,已辦,"25.0248401,121.5009789","25°01'29.4""N 121°30'03.5""E",108台北市萬華區萬大路277巷14弄31-17,25.0248401,121.5009789,1F,7F,59743.729355481206,-2.516335198826288,1523698.0
11669167,21-Dec,TPE,台北市內湖區內湖路一段298號,內湖區西湖里,314280,157,二個月,20429.0,平面式停車位，已含租金內,一年,簡易裝潢,已辦,"25.0829723,121.5690118","25°04'58.7""N 121°34'08.4""E",114台北市內湖區內湖路一段351巷24號,25.0829723,121.5690118,1F,10F,15663.485203708558,-2.015517407925005,2656491.0
11636084,21-Dec,TPE,台北市北投區明德路,北投區建民里,150000,64,二個月,3886.0,,一年,尚未裝潢,已辦,"25.1087158,121.5190649","25°06'31.4""N 121°31'08.6""E",112台北市北投區明德路50號,25.1087158,121.5190649,1F,8F,3975.001776252503,0.0777982027682237,1767508.0
11473944,21-Dec,TPE,台北市大安區通化街,大安區通化里,210000,66,二個月,,,一年,尚未裝潢,已辦,"25.0314410,121.5548700","25°01'53.2""N 121°33'17.5""E",106台北市大安區通化街19巷6弄,25.031441,121.55487,整棟,3F,52598.05455926029,-0.7276535600304463,2422355.0
11667005,21-Dec,TPE,台北市大安區仁愛路四段300巷26弄21號,大安區敦煌里,88000,41,二個月,500.0,,兩年,中檔裝潢,已辦,"25.0359260,121.5532386","25°02'09.3""N 121°33'11.7""E",106台北市大安區仁愛路四段300巷26弄23號,25.035926,121.5532386,1F,7F,48961.44810521408,-1.0417644500814691,3637929.0
11563597,21-Dec,TPE,台北市大同區承德路一段77巷,大同區建泰里,32000,24,二個月,710.0,,一年,尚未裝潢,已辦,"25.0530544,121.5185166","25°03'11.0""N 121°31'06.7""E",103台北市大同區南京西路90-64,25.0530544,121.5185166,1F,10F,30955.766105813625,-1.645254118838431,1562629.0
11668383,21-Dec,TPE,台北市士林區社中街426巷,士林區永倫里,28000,26,二個月,,,一年,已辦,已辦,"25.0919738,121.502371","25°05'31.1""N 121°30'08.5""E",111台北市士林區社中街426巷5號,25.0919738,121.502371,1F,3F,11623.21319391239,-1.9983340360824424,1910651.0
11693351,21-Dec,TPE,台北市大安區仁愛路四段345巷,大安區建倫里,130000,41,二個月,3400.0,,兩年,尚未裝潢,已辦,"25.0390469,121.550976","25°02'20.6""N 121°33'03.5""E",106台北市大安區仁愛路四段345巷4弄45號,25.0390469,121.550976,1F,7F,37710.81747880526,-0.986778955176056,4386578.0
11445023,21-Dec,TPE,台北市中正區金山南路一段102號,中正區文祥里,70000,15,"180,000",,,2年,中檔裝潢,未辦,"25.0356879,121.5273660","25°02'08.5""N 121°31'38.5""E",100台北市中正區金山南路一段104號,25.0356879,121.527366,1F,4F,72693.02961504727,-0.0149651873221282,4468052.0
11859685,21-Dec,TPE,台北市松山區南京東路四段53巷,松山區中華里,83500,46,"240,000",,平面式停車位，已含租金內,兩年,簡易裝潢,已辦,"25.0528550,121.5511625","25°03'10.3""N 121°33'04.2""E",105台北市 松山區南京東路四段53巷8弄1號B1樓,25.052855,121.5511625,1F,5F,33991.447492751264,-0.2412939224685365,4211157.0
11462320,21-Dec,TPE,台北市大安區忠孝東路四段205巷,大安區建安里,380000,140,面議,,,兩年,簡易裝潢,已辦,"25.0420010,121.5520040","25°02'31.2""N 121°33'07.2""E",106台北市大安區忠孝東路四段205巷7弄,25.042001,121.552004,1F,5F,32731.53217965089,-1.9321270953113423,3039876.0
11470215,21-Dec,TPE,台北市南港區重陽路125巷,南港區東新里,128800,61,二個月,2450.0,,兩年,簡易裝潢,已辦,"25.0545799,121.5955550","25°03'16.5""N 121°35'44.0""E",115台北市南港區南港路二段298號,25.0545799,121.595555,1F,8F,30502.708206212865,-1.1662877432990548,2454543.0
11843906,21-Dec,TPE,台北市大安區復興南路二段148巷,大安區龍陣里,75000,21,二個月,300.0,,一年,簡易裝潢,已辦,"25.02855,121.541778","25°01'42.8""N 121°32'30.4""E",106台北市大安區復興南路二段148巷38號,25.02855,121.541778,1F,7F,39352.84527836894,-0.9082819770050024,1913349.0
11850278,21-Dec,TPE,台北市文山區興隆路二段220巷31弄11號,文山區興業里,198000,205,二個月,300.0,,一年,簡易裝潢,已辦,"25.0008566,121.5530573","25°00'03.1""N 121°33'11.0""E",116台北市文山區興隆路二段226巷6號,25.0008566,121.5530573,1F,7F,42145.22804912599,-0.8306253090452446,2232789.0
11602215,21-Dec,TPE,台北市中正區羅斯福路四段,中正區文盛里,80000,20,二個月,,,一年,簡易裝潢,未辦,"25.0157538,121.5329504","25°00'56.7""N 121°31'58.6""E",100台北市中正區羅斯福路四段12巷16號,25.0157538,121.5329504,1F,2F,24170.67725848128,3.3676818985766133,1086607.0
11793588,21-Dec,TPE,台北市內湖區東湖路143號,內湖區東湖里,65000,28,二個月,,,一年,簡易裝潢,已辦,"25.0681950,121.6171030","25°04'05.5""N 121°37'01.6""E",114台北市內湖區東湖路163號,25.068195,121.617103,1F,5F,51392.55385609748,-0.7371580017256463,2532485.0
